stop_id,stop_code,stop_name,stop_desc,stop_lat,stop_lon,zone_id,stop_url,location_type,parent_station,stop_timezone,wheelchair_boarding,platform_code
265 1,,金山,,33.2485469,131.8696048,265 1,,0,,,,
265 2,,金山,,33.2485507,131.8675782,265 2,,0,,,,
266 1,,佐賀関,,33.2488929,131.8735711,266 1,,0,,,,
266 2,,佐賀関,,33.24891584,131.8736414,266 2,,0,,,,
3007 1,,日当,,33.0520975,131.6890698,3007 1,,0,,,,
3007 2,,日当,,33.0519111,131.6888499,3007 2,,0,,,,
3008 1,,野津南,,33.0421572,131.6904962,3008 1,,0,,,,
3008 2,,野津南,,33.0424565,131.6904186,3008 2,,0,,,,
3009 1,,野津南保育園前,,33.0391946,131.6896624,3009 1,,0,,,,
3009 2,,野津南保育園前,,33.0391906,131.6897836,3009 2,,0,,,,
3010 1,,板屋,,33.0362719,131.6895008,3010 1,,0,,,,
3010 2,,板屋,,33.0363002,131.6893472,3010 2,,0,,,,
3013 1,,落谷,,33.017114,131.7010966,3013 1,,0,,,,
3013 2,,落谷,,33.0163158,131.7008031,3013 2,,0,,,,
3014 9,,野津黒土,,33.0107088,131.7036686,3014 9,,0,,,,
3015 1,,清水原,,33.0079814,131.7083054,3015 1,,0,,,,
3015 2,,清水原,,33.0075399,131.708286,3015 2,,0,,,,
3016 1,,川登小学校前,,33.006392,131.7183057,3016 1,,0,,,,
3016 2,,川登小学校前,,33.0063553,131.7169403,3016 2,,0,,,,
3017 1,,今俵,,33.0058383,131.7233905,3017 1,,0,,,,
3017 2,,今俵,,33.0057281,131.7230011,3017 2,,0,,,,
3018 1,,風連鍾乳洞入口,,33.0052241,131.7339468,3018 1,,0,,,,
3018 2,,風連鍾乳洞入口,,33.0051014,131.7343118,3018 2,,0,,,,
3019 9,,内平,,33.006589,131.7410333,3019 9,,0,,,,
3020 9,,遠久原,,33.0006634,131.7482409,3020 9,,0,,,,
3021 1,,垣河内,,32.9998136,131.7511337,3021 1,,0,,,,
3021 2,,垣河内,,32.99982367,131.7509131,3021 2,,0,,,,
3022 9,,板井畑,,32.9975699,131.7535217,3022 9,,0,,,,
3023 1,,割後場,,32.9963603,131.7585693,3023 1,,0,,,,
3023 2,,割後場,,32.9962941,131.7584128,3023 2,,0,,,,
5020 1,,障子岩,,33.0927214,131.7411902,5020 1,,0,,,,
5020 2,,障子岩,,33.09259691,131.7409929,5020 2,,0,,,,
5021 1,,籠の瀬,,33.0949515,131.7475455,5021 1,,0,,,,
5021 2,,籠の瀬,,33.0947988,131.7474515,5021 2,,0,,,,
5022 1,,竹場,,33.0938976,131.7576834,5022 1,,0,,,,
5022 2,,竹場,,33.09396371,131.7571249,5022 2,,0,,,,
5023 1,,深田,,33.09461373,131.7625244,5023 1,,0,,,,
5023 2,,深田,,33.09474707,131.7634743,5023 2,,0,,,,
5024 2,,臼杵石仏,,33.091864,131.7621745,5024 2,,0,,,,
5025 1,,望月,,33.09819681,131.7694903,5025 1,,0,,,,
5025 2,,望月,,33.0982378,131.7697536,5025 2,,0,,,,
5027 1,,粟手原,,33.10269633,131.7700067,5027 1,,0,,,,
5027 2,,粟手原,,33.102613,131.7702373,5027 2,,0,,,,
5028 1,,清太郎,,33.10681261,131.772723,5028 1,,0,,,,
5028 2,,清太郎,,33.1067397,131.7728362,5028 2,,0,,,,
5029 1,,白馬渓,,33.10876245,131.7758893,5029 1,,0,,,,
5029 2,,白馬渓,,33.108599,131.7759526,5029 2,,0,,,,
5030 1,,野田入口,,33.1100457,131.7795223,5030 1,,0,,,,
5030 2,,野田入口,,33.109862,131.7795696,5030 2,,0,,,,
5031 1,,手無地蔵,,33.1114151,131.7833074,5031 1,,0,,,,
5031 2,,手無地蔵,,33.11124565,131.7833886,5031 2,,0,,,,
5032 1,,温井入口,,33.112769,131.7871694,5032 1,,0,,,,
5032 2,,温井入口,,33.1127025,131.7872363,5032 2,,0,,,,
5033 1,,土橋,,33.1145894,131.7919974,5033 1,,0,,,,
5033 2,,土橋,,33.1141766,131.791308,5033 2,,0,,,,
5035 1,,平清水,,33.1173701,131.7950456,5035 1,,0,,,,
5035 2,,平清水,,33.1174546,131.795232,5035 2,,0,,,,
5036 1,,住吉橋,,33.1197972,131.7957766,5036 1,,0,,,,
5036 2,,住吉橋,,33.11949499,131.7957705,5036 2,,0,,,,
5037 1,,辻口,,33.12224477,131.8004866,5037 1,,0,,,,
5037 2,,辻口,,33.1220545,131.7995041,5037 2,,0,,,,
5039 1,,城北,,33.12292811,131.8045696,5039 1,,0,,,,
5039 2,,城北,,33.1225856,131.8033537,5039 2,,0,,,,
5044 1,,城南,,33.1215942,131.8059928,5044 1,,0,,,,
5044 2,,城南,,33.121375,131.8061577,5044 2,,0,,,,
5045 1,,臼杵駅,,33.11869527,131.8072862,5045 1,,0,,,,
5045 2,,臼杵駅,,33.118958,131.807144,5045 2,,0,,,,
5048 9,,臼杵港フェリーターミナル,,33.1227779,131.8165695,5048 9,,0,,,,
5101 9,,清流橋,,33.1203717,131.80823,5101 9,,0,,,,
5102 9,,下り松,,33.1208097,131.8133135,5102 9,,0,,,,
5103 9,,水ヶ浦,,33.1216322,131.8173221,5103 9,,0,,,,
5104 9,,板知屋,,33.120975,131.826141,5104 9,,0,,,,
5105 9,,上浦緑の園前,,33.118961,131.835281,5105 9,,0,,,,
5106 9,,大泊,,33.114746,131.841141,5106 9,,0,,,,
5107 9,,風成,,33.1157233,131.8473284,5107 9,,0,,,,
5108 9,,横網代,,33.117987,131.8515323,5108 9,,0,,,,
5109 9,,鳴川,,33.1200577,131.8559592,5109 9,,0,,,,
5110 9,,鯖代,,33.122192,131.857712,5110 9,,0,,,,
5111 9,,坪江,,33.124142,131.860489,5111 9,,0,,,,
5112 9,,深江,,33.125385,131.866882,5112 9,,0,,,,
5113 9,,柿の浦,,33.1230309,131.8747427,5113 9,,0,,,,
5114 9,,久保浦,,33.1214734,131.8807465,5114 9,,0,,,,
5115 9,,苙場,,33.1217199,131.8832619,5115 9,,0,,,,
5116 9,,清水,,33.1245042,131.8941359,5116 9,,0,,,,
5117 9,,破磯,,33.122738,131.88475,5117 9,,0,,,,
5118 2,,泊ヶ内,,33.1272012,131.9016367,5118 2,,0,,,,
5118 9,,泊ヶ内,,33.1271102,131.9016139,5118 9,,0,,,,
5121 1,,市浜入口,,33.1174418,131.7923131,5121 1,,0,,,,
5121 2,,市浜入口,,33.1173862,131.7922585,5121 2,,0,,,,
5122 1,,市浜,,33.11993,131.79184,5122 1,,0,,,,
5122 2,,市浜,,33.1199884,131.7917649,5122 2,,0,,,,
5123 1,,新地,,33.1221709,131.7936436,5123 1,,0,,,,
5123 2,,新地,,33.122135,131.793716,5123 2,,0,,,,
5124 1,,新地中通り,,33.124203,131.792496,5124 1,,0,,,,
5124 2,,新地中通り,,33.1241468,131.7924236,5124 2,,0,,,,
5125 1,,江無田,,33.126904,131.789871,5125 1,,0,,,,
5125 2,,江無田,,33.126872,131.7897496,5125 2,,0,,,,
5126 1,,弥生,,33.1290042,131.7895848,5126 1,,0,,,,
5126 2,,弥生,,33.1289863,131.7894802,5126 2,,0,,,,
5127 1,,北中学校前,,33.1320804,131.7891658,5127 1,,0,,,,
5127 2,,北中学校前,,33.1320658,131.7890746,5127 2,,0,,,,
5128 1,,熊崎駅前,,33.1355166,131.7888407,5128 1,,0,,,,
5128 2,,熊崎駅前,,33.1355705,131.7886878,5128 2,,0,,,,
5129 1,,熊崎支所前,,33.1380492,131.7890625,5129 1,,0,,,,
5129 2,,熊崎支所前,,33.1380588,131.7889777,5129 2,,0,,,,
5130 1,,下北農協前,,33.1408526,131.7896394,5130 1,,0,,,,
5130 2,,下北農協前,,33.1408694,131.7895257,5130 2,,0,,,,
5131 9,,下北小学校入口,,33.144268,131.79126,5131 9,,0,,,,
5132 9,,岩崎,,33.1487187,131.795238,5132 9,,0,,,,
5133 9,,原,,33.1510597,131.80146,5133 9,,0,,,,
5134 9,,大野,,33.1536261,131.8067937,5134 9,,0,,,,
5135 9,,井岡入口,,33.1551142,131.8091997,5135 9,,0,,,,
5136 9,,下の江駅前,,33.1570876,131.8118406,5136 9,,0,,,,
5137 9,,ふれあいセンター前,,33.1575901,131.8132258,5137 9,,0,,,,
5138 9,,浜田,,33.1578547,131.8152432,5138 9,,0,,,,
5139 9,,汐浜,,33.1548096,131.8192842,5139 9,,0,,,,
5140 9,,下の江浦,,33.1569432,131.8213111,5140 9,,0,,,,
5141 9,,豊洋中学校前,,33.165588,131.823044,5141 9,,0,,,,
5142 1,,藤田,,33.174332,131.8260116,5142 1,,0,,,,
5142 2,,藤田,,33.1742776,131.8259047,5142 2,,0,,,,
5143 1,,桑原,,33.1773129,131.8276921,5143 1,,0,,,,
5143 2,,桑原,,33.177433,131.827621,5143 2,,0,,,,
5144 1,,尾本,,33.1790297,131.8299011,5144 1,,0,,,,
5144 2,,尾本,,33.179115,131.829834,5144 2,,0,,,,
5145 1,,黒島入口,,33.1814621,131.8331638,5145 1,,0,,,,
5145 2,,黒島入口,,33.1815407,131.8331021,5145 2,,0,,,,
5146 9,,長浜,,33.187214,131.840027,5146 9,,0,,,,
5147 9,,小網代,,33.188923,131.846146,5147 9,,0,,,,
5148 9,,相浜,,33.194695,131.85466,5148 9,,0,,,,
5149 1,,下浦,,33.1960754,131.8576003,5149 1,,0,,,,
5149 9,,下浦,,33.1960664,131.8575762,5149 9,,0,,,,
5150 9,,奥,,33.197208,131.859558,5150 9,,0,,,,
5151 9,,一尺屋支所前,,33.2022965,131.8588665,5151 9,,0,,,,
5152 9,,上浦,,33.204334,131.860519,5152 9,,0,,,,
5153 9,,田の浦,,33.212776,131.865387,5153 9,,0,,,,
5154 9,,室生,,33.221539,131.872971,5154 9,,0,,,,
5155 1,,玉井,,33.2291035,131.8736936,5155 1,,0,,,,
5155 2,,玉井,,33.2290329,131.8736359,5155 2,,0,,,,
5156 9,,白木,,33.232677,131.870834,5156 9,,0,,,,
5157 9,,秋の江,,33.242012,131.873734,5157 9,,0,,,,
5158 9,,小学校前,,33.245003,131.873886,5158 9,,0,,,,
5159 9,,佐賀関病院,,33.249344,131.86763,5159 9,,0,,,,
5161 9,,住宅前,,33.1282959,131.7978485,5161 9,,0,,,,
5162 9,,支所,,33.130199,131.800003,5162 9,,0,,,,
5163 9,,若葉区,,33.1315647,131.8020866,5163 9,,0,,,,
5164 9,,局前,,33.132313,131.803162,5164 9,,0,,,,
5165 9,,津留,,33.1333954,131.8047138,5165 9,,0,,,,
5166 9,,大浜峠,,33.1354492,131.807871,5166 9,,0,,,,
5167 9,,小学校前,,33.135799,131.809296,5167 9,,0,,,,
5168 9,,大浜,,33.1386401,131.8093294,5168 9,,0,,,,
5169 9,,漢の浦,,33.14138,131.813293,5169 9,,0,,,,
5170 2,,中津浦,,33.1419593,131.8148343,5170 2,,0,,,,
5170 9,,中津浦,,33.1419683,131.8148303,5170 9,,0,,,,
5251 9,,木ケ畑橋,,33.091648,131.735901,5251 9,,0,,,,
5252 9,,勘場,,33.0897382,131.7319052,5252 9,,0,,,,
5253 9,,一ノ瀬,,33.0846775,131.7300058,5253 9,,0,,,,
5254 9,,生の原,,33.0699652,131.7144296,5254 9,,0,,,,
5255 9,,下り松,,33.0669313,131.7111695,5255 9,,0,,,,
5256 9,,池原,,33.064713,131.709473,5256 9,,0,,,,
5257 9,,野津筒井,,33.0612956,131.7052768,5257 9,,0,,,,
5258 9,,赤迫,,33.0570161,131.700638,5258 9,,0,,,,
5259 9,,心行院前,,33.05595,131.696167,5259 9,,0,,,,
5260 9,,乙丸橋,,33.055592,131.692734,5260 9,,0,,,,
5261 9,,野津北町,,33.046734,131.691803,5261 9,,0,,,,
5262 9,,野津辻,,33.0444523,131.6934269,5262 9,,0,,,,
5263 1,,野津市,,33.0430342,131.6918793,5263 1,,0,,,,
5263 9,,野津市,,33.0430229,131.691888,5263 9,,0,,,,
5268 9,,王子,,33.0379105,131.7141166,5268 9,,0,,,,
5269 9,,大内,,33.0354453,131.7148075,5269 9,,0,,,,
5270 9,,水池,,33.0309237,131.7136369,5270 9,,0,,,,
5271 9,,溜水,,33.0270961,131.7122541,5271 9,,0,,,,
5272 9,,栄寿荘前,,33.019927,131.705247,5272 9,,0,,,,
5281 9,,竹場,,33.0930276,131.7583568,5281 9,,0,,,,
5282 9,,南津留小学校前,,33.091412,131.758301,5282 9,,0,,,,
5283 9,,左津留,,33.0865106,131.755808,5283 9,,0,,,,
5284 9,,払川,,33.082359,131.757309,5284 9,,0,,,,
5285 9,,株の木,,33.0749016,131.7559718,5285 9,,0,,,,
5286 9,,乙見,,33.064697,131.748245,5286 9,,0,,,,
5287 9,,神野口,,33.0637686,131.7460469,5287 9,,0,,,,
5288 9,,ダム入口,,33.063763,131.741684,5288 9,,0,,,,
5289 9,,城崎,,33.0595994,131.7387224,5289 9,,0,,,,
5290 9,,八里合,,33.0544991,131.7349166,5290 9,,0,,,,
5291 9,,名塚,,33.051586,131.731674,5291 9,,0,,,,
5292 9,,福良木,,33.049671,131.731018,5292 9,,0,,,,
5293 9,,名塚原,,33.0470247,131.7239878,5293 9,,0,,,,
5294 9,,土橋,,33.04475,131.719803,5294 9,,0,,,,
5295 9,,塚田,,33.040035,131.716339,5295 9,,0,,,,
5301 9,,野口,,33.031445,131.688461,5301 9,,0,,,,
5302 9,,西ノ口,,33.0288204,131.6876314,5302 9,,0,,,,
5321 9,,前河内,,33.0231243,131.6871458,5321 9,,0,,,,
5322 9,,原口,,33.020248,131.681137,5322 9,,0,,,,
5323 9,,大久保,,33.018745,131.672836,5323 9,,0,,,,
5324 9,,川平,,33.0156625,131.6660342,5324 9,,0,,,,
5325 9,,尾原入口,,33.014221,131.666,5325 9,,0,,,,
5326 9,,栃原,,33.009113,131.66301,5326 9,,0,,,,
5327 9,,花香,,33.004814,131.65593,5327 9,,0,,,,
5328 9,,鼓石,,33.006817,131.647827,5328 9,,0,,,,
5330 9,,東光寺,,33.008808,131.641479,5330 9,,0,,,,
5331 9,,柳井瀬,,33.0099516,131.63678,5331 9,,0,,,,
5361 1,,辻,,33.1201343,131.7998918,5361 1,,0,,,,
5361 2,,辻,,33.120193,131.800034,5361 2,,0,,,,
5362 1,,本丁,,33.1191206,131.8018243,5362 1,,0,,,,
5362 2,,本丁,,33.1195637,131.8015574,5362 2,,0,,,,
5363 9,,海添,,33.117191,131.802292,5363 9,,0,,,,
5364 1,,柳原橋,,33.1128416,131.8020129,5364 1,,0,,,,
5364 2,,柳原橋,,33.1128775,131.8021047,5364 2,,0,,,,
5365 1,,内畑,,33.1038468,131.8110111,5365 1,,0,,,,
5365 2,,内畑,,33.1034289,131.8111935,5365 2,,0,,,,
5366 9,,原,,33.083706,131.828369,5366 9,,0,,,,
5367 9,,蔵富,,33.085732,131.831894,5367 9,,0,,,,
5368 1,,道尾,,33.0855469,131.8359744,5368 1,,0,,,,
5368 2,,道尾,,33.0856447,131.8360106,5368 2,,0,,,,
5369 1,,平岩,,33.0834165,131.8392475,5369 1,,0,,,,
5369 2,,平岩,,33.082989,131.839798,5369 2,,0,,,,
5370 1,,中村屋,,33.0782905,131.84437,5370 1,,0,,,,
5370 2,,中村屋,,33.0783664,131.8443666,5370 2,,0,,,,
5371 9,,門前,,33.0769978,131.8476071,5371 9,,0,,,,
5372 1,,桜が瀬,,33.0768976,131.8507109,5372 1,,0,,,,
5372 2,,桜が瀬,,33.0769774,131.8506962,5372 2,,0,,,,
5373 9,,松崎,,33.0773576,131.8533432,5373 9,,0,,,,
5374 1,,セメント町,,33.0778718,131.8553455,5374 1,,0,,,,
5374 2,,セメント町,,33.0779605,131.8553609,5374 2,,0,,,,
5375 1,,警固屋,,33.077221,131.859207,5375 1,,0,,,,
5375 2,,警固屋,,33.077316,131.8592251,5375 2,,0,,,,
5376 1,,津久見港,,33.0752294,131.8636529,5376 1,,0,,,,
5376 2,,津久見港,,33.0753446,131.8636717,5376 2,,0,,,,
5377 1,,駅前通り,,33.074142,131.8642458,5377 1,,0,,,,
5377 2,,駅前通り,,33.0740915,131.8643544,5377 2,,0,,,,
5378 1,,津久見駅,,33.0730862,131.8635307,5378 1,,0,,,,
5378 2,,津久見駅,,33.0730952,131.8635146,5378 2,,0,,,,
5380 9,,社会福祉協議会,,33.0760008,131.8651252,5380 9,,0,,,,
5501 9,,中町,,33.0800524,131.8405717,5501 9,,0,,,,
5502 9,,長野,,33.080521,131.838577,5502 9,,0,,,,
5503 9,,栄町,,33.0811482,131.8354749,5503 9,,0,,,,
5504 9,,垣篭,,33.0809373,131.832092,5504 9,,0,,,,
5505 9,,鬼丸,,33.0795662,131.8276768,5505 9,,0,,,,
5506 9,,岩屋口,,33.0790161,131.8258033,5506 9,,0,,,,
5507 9,,川内入口,,33.0773017,131.8236178,5507 9,,0,,,,
5508 9,,下川内,,33.0757684,131.8199216,5508 9,,0,,,,
5509 9,,中川内,,33.0750934,131.817074,5509 9,,0,,,,
5510 9,,風抜,,33.0740509,131.8140989,5510 9,,0,,,,
5511 2,,川内,,33.0723956,131.8119873,5511 2,,0,,,,
5511 9,,川内,,33.0723933,131.8120034,5511 9,,0,,,,
5521 9,,入船,,33.0803121,131.8550195,5521 9,,0,,,,
5522 9,,野島,,33.084049,131.85495,5522 9,,0,,,,
5523 9,,第二工場前,,33.086517,131.853928,5523 9,,0,,,,
5524 9,,合の元,,33.0891628,131.8505268,5524 9,,0,,,,
5525 9,,徳浦,,33.091099,131.850632,5525 9,,0,,,,
5526 9,,宮田,,33.0916136,131.8515505,5526 9,,0,,,,
5527 9,,下,,33.0909486,131.8549751,5527 9,,0,,,,
5528 9,,学校前,,33.0920984,131.8581881,5528 9,,0,,,,
5529 9,,堅浦,,33.092706,131.8604528,5529 9,,0,,,,
5530 9,,浜,,33.091607,131.8616676,5530 9,,0,,,,
5531 9,,内名,,33.0903875,131.8641334,5531 9,,0,,,,
5532 1,,久保浦団地,,33.091782,131.865936,5532 1,,0,,,,
5532 2,,久保浦団地,,33.091782,131.865936,5532 2,,0,,,,
5532 9,,久保浦団地,,33.0917196,131.8659622,5532 9,,0,,,,
5533 9,,立花,,33.0949379,131.8671051,5533 9,,0,,,,
5534 9,,立花海岸,,33.097057,131.870163,5534 9,,0,,,,
5535 9,,とよみ園,,33.10033,131.874191,5535 9,,0,,,,
5536 9,,浦代,,33.103516,131.874771,5536 9,,0,,,,
5537 9,,長目入口,,33.105476,131.87587,5537 9,,0,,,,
5538 9,,長目,,33.108562,131.879379,5538 9,,0,,,,
5539 9,,長目小学校前,,33.109348,131.882736,5539 9,,0,,,,
5540 9,,釜戸,,33.110809,131.884644,5540 9,,0,,,,
5541 9,,久保浦,,33.1089691,131.88795,5541 9,,0,,,,
5542 9,,伊崎,,33.107497,131.8918918,5542 9,,0,,,,
5543 2,,楠屋,,33.115337,131.897079,5543 2,,0,,,,
5543 9,,楠屋,,33.115337,131.897079,5543 9,,0,,,,
5551 9,,つくみん公園,,33.076588,131.864578,5551 9,,0,,,,
5552 9,,高洲町,,33.074926,131.8655771,5552 9,,0,,,,
5553 9,,市民会館前,,33.076607,131.8715603,5553 9,,0,,,,
5554 9,,広浦,,33.075378,131.880798,5554 9,,0,,,,
5555 9,,千怒農協前,,33.0733002,131.8847189,5555 9,,0,,,,
5556 1,,津久見中央病院,,33.0717523,131.8877843,5556 1,,0,,,,
5556 2,,津久見中央病院,,33.0718281,131.8878212,5556 2,,0,,,,
5557 9,,太田,,33.071613,131.889648,5557 9,,0,,,,
5558 9,,新地,,33.074654,131.889359,5558 9,,0,,,,
5559 1,,旭町,,33.0763937,131.8876233,5559 1,,0,,,,
5559 2,,旭町,,33.0763634,131.8875207,5559 2,,0,,,,
5560 2,,運動公園,,33.0787175,131.8840962,5560 2,,0,,,,
5560 9,,運動公園,,33.0787268,131.8840838,5560 9,,0,,,,
5561 9,,日見,,33.067356,131.910706,5561 9,,0,,,,
5562 1,,日代駅前,,33.066849,131.917221,5562 1,,0,,,,
5562 2,,日代駅前,,33.0669378,131.9171969,5562 2,,0,,,,
5563 9,,網代,,33.0657075,131.9250517,5563 9,,0,,,,
5564 9,,津井越,,33.067047,131.9282177,5564 9,,0,,,,
5565 9,,そこばえ,,33.0689197,131.9295182,5565 9,,0,,,,
5566 9,,造船所前,,33.0721289,131.926709,5566 9,,0,,,,
5567 9,,江の浦,,33.0742517,131.9327472,5567 9,,0,,,,
5568 9,,赤崎入口,,33.0759459,131.9329923,5568 9,,0,,,,
5569 2,,赤崎,,33.0909875,131.9311349,5569 2,,0,,,,
5569 9,,赤崎,,33.0909881,131.9311443,5569 9,,0,,,,
5571 9,,荒代,,33.06863,131.94368,5571 9,,0,,,,
5572 9,,仙水小学校前,,33.066128,131.953049,5572 9,,0,,,,
5573 9,,鳩浦,,33.0679074,131.9549623,5573 9,,0,,,,
5574 9,,つくみイルカ島,,33.0689329,131.9544695,5574 9,,0,,,,
5575 9,,港,,33.0678567,131.966165,5575 9,,0,,,,
5576 9,,刀自ヶ浦,,33.0664301,131.9653705,5576 9,,0,,,,
5577 9,,久保泊,,33.0642653,131.9677742,5577 9,,0,,,,
5578 9,,深良津,,33.0619479,131.9686702,5578 9,,0,,,,
5579 9,,落の浦,,33.0690563,131.9896106,5579 9,,0,,,,
5580 9,,鹿の浦,,33.0714414,131.9894187,5580 9,,0,,,,
5581 9,,田の浦,,33.074398,131.989044,5581 9,,0,,,,
5582 9,,摺木,,33.0782362,131.9861465,5582 9,,0,,,,
5583 9,,松ケ浦,,33.082443,131.98819,5583 9,,0,,,,
5584 9,,高浜,,33.0828054,131.9947883,5584 9,,0,,,,
5585 9,,越智小学校前,,33.083083,131.9882335,5585 9,,0,,,,
5586 9,,狩床,,33.0876435,131.9881648,5586 9,,0,,,,
5587 9,,大元,,33.0909718,131.9929835,5587 9,,0,,,,
5588 9,,西泊,,33.0930444,131.9966474,5588 9,,0,,,,
5589 1,,間元,,33.0953543,132.0000618,5589 1,,0,,,,
5589 9,,間元,,33.095352,132.0000498,5589 9,,0,,,,
5601 9,,鍛治屋橋,,33.070034,131.888657,5601 9,,0,,,,
5602 9,,山田橋,,33.06837,131.8883557,5602 9,,0,,,,
5603 9,,千怒,,33.067158,131.8874843,5603 9,,0,,,,
7014 1,,菅尾駅前,,33.013233,131.617493,7014 1,,0,,,,
7014 2,,菅尾駅前,,33.0133432,131.6172892,7014 2,,0,,,,
7016 9,,緑ヶ丘,,33.0119895,131.6219766,7016 9,,0,,,,
7018 1,,亀の甲,,33.010208,131.61644,7018 1,,0,,,,
7018 2,,亀の甲,,33.0101788,131.6162469,7018 2,,0,,,,
7019 1,,金田入口,,33.0008242,131.6155923,7019 1,,0,,,,
7019 2,,金田入口,,33.0008029,131.6154689,7019 2,,0,,,,
7020 1,,三重の原,,32.9955726,131.6159878,7020 1,,0,,,,
7020 2,,三重の原,,32.9956097,131.6158711,7020 2,,0,,,,
7021 1,,東営住宅前,,32.9946078,131.6151909,7021 1,,0,,,,
7021 2,,東営住宅前,,32.9946651,131.6150836,7021 2,,0,,,,
7022 1,,谷川原,,32.9922015,131.61239,7022 1,,0,,,,
7022 2,,谷川原,,32.9922881,131.6122827,7022 2,,0,,,,
7023 1,,権現堂,,32.989772,131.6087689,7023 1,,0,,,,
7023 2,,権現堂,,32.9898496,131.6087152,7023 2,,0,,,,
7024 1,,下赤嶺東,,32.9879065,131.6030591,7024 1,,0,,,,
7024 2,,下赤嶺東,,32.9880168,131.6029974,7024 2,,0,,,,
7025 1,,市の坪,,32.986603,131.601227,7025 1,,0,,,,
7025 2,,市の坪,,32.9866795,131.6011036,7025 2,,0,,,,
7026 1,,今市,,32.984097,131.596191,7026 1,,0,,,,
7026 2,,今市,,32.9842134,131.5961903,7026 2,,0,,,,
7027 1,,市場六区,,32.982891,131.588791,7027 1,,0,,,,
7027 2,,市場六区,,32.9829607,131.5886918,7027 2,,0,,,,
7028 1,,ロータリートキハ前,,32.980434,131.585983,7028 1,,0,,,,
7028 2,,ロータリートキハ前,,32.9804779,131.5858999,7028 2,,0,,,,
7060 9,,三重町駅,,32.9834288,131.5844123,7060 9,,0,,,,
7061 1,,駅前通り,,32.9827178,131.5844092,7061 1,,0,,,,
7061 2,,駅前通り,,32.9827189,131.5842926,7061 2,,0,,,,
7062 1,,大野竹田バス本社,,32.9844648,131.5861686,7062 1,,0,,,,
7062 2,,大野竹田バス本社,,32.9844631,131.5861847,7062 2,,0,,,,
7101 1,,ロータリー,,32.9791096,131.5847887,7101 1,,0,,,,
7101 2,,ロータリー,,32.9792896,131.5850422,7101 2,,0,,,,
7102 1,,監督署前,,32.9776498,131.5836656,7102 1,,0,,,,
7102 2,,監督署前,,32.9775851,131.5837729,7102 2,,0,,,,
7171 9,,三重総合高校前,,32.975183,131.5812182,7171 9,,0,,,,
