stop_id,stop_code,stop_name,stop_desc,stop_lat,stop_lon,zone_id,stop_url,location_type,parent_station,stop_timezone,wheelchair_boarding,platform_code
1 0,,別府駅西口,,33.2797521,131.4999677,1 0,,0,,,,
1 1,,別府駅西口,,33.2797577,131.4999829,1 1,,0,,,,2
1 3,,別府駅西口,,33.2798045,131.5000666,1 3,,0,,,,1
10 0,,光の園前,,33.2945627,131.4840268,10 0,,0,,,,
10 1,,光の園前,,33.2948524,131.4840194,10 1,,0,,,,
10 2,,光の園前,,33.2945429,131.4840319,10 2,,0,,,,
100 1,,流川２丁目,,33.2767231,131.505404,100 1,,0,,,,
100 2,,流川２丁目,,33.2765194,131.5042788,100 2,,0,,,,
100001 3,,別府駅西口,,33.279804,131.5000658,100001 3,,0,,,,1
100001 4,,別府駅西口,,33.279804,131.500064,100001 4,,0,,,,1
100099 1,,別府駅前,,33.2791619,131.5003232,100099 1,,0,,,,5
100099 2,,別府駅前,,33.2791732,131.5003272,100099 2,,0,,,,5
101 1,,流川５丁目,,33.2764272,131.5022747,101 1,,0,,,,
101 2,,流川５丁目,,33.2762564,131.5010044,101 2,,0,,,,
1014 0,,原　新別府病院前,,33.30010343,131.477022,1014 0,,0,,,,
1014 1,,原　新別府病院前,,33.30008677,131.4771886,1014 1,,0,,,,
1014 2,,原　新別府病院前,,33.30009,131.4769965,1014 2,,0,,,,
102 1,,流川６丁目・不老泉,,33.2762997,131.5003043,102 1,,0,,,,
102 2,,流川６丁目・不老泉,,33.2761278,131.4999856,102 2,,0,,,,
103 1,,流川８丁目,,33.27608971,131.4982546,103 1,,0,,,,
103 2,,流川８丁目,,33.2760341,131.4987414,103 2,,0,,,,
103 3,,流川８丁目,,33.2755398,131.4979319,103 3,,0,,,,
103 6,,流川８丁目,,33.275522,131.4977041,103 6,,0,,,,
104 1,,流川１２丁目,,33.2756852,131.4940037,104 1,,0,,,,
104 2,,流川１２丁目,,33.2757163,131.4952756,104 2,,0,,,,
11 0,,南原,,33.2977527,131.4828085,11 0,,0,,,,
11 1,,南原,,33.29775379,131.4829216,11 1,,0,,,,
11 2,,南原,,33.2977436,131.4828098,11 2,,0,,,,
112 1,,総合体育館入口,,33.27745609,131.4901719,112 1,,0,,,,
112 2,,総合体育館入口,,33.2775027,131.4899481,112 2,,0,,,,
113 1,,上原町,,33.2789372,131.4892254,113 1,,0,,,,
113 2,,上原町,,33.2793624,131.4890593,113 2,,0,,,,
114 1,,別府公園西入口,,33.2810704,131.4889707,114 1,,0,,,,
114 2,,別府公園西入口,,33.2809557,131.4888385,114 2,,0,,,,
115 1,,鉄輪温泉東口,,33.3177814,131.4789599,115 1,,0,,,,
115 2,,鉄輪温泉東口,,33.3177279,131.4790553,115 2,,0,,,,
116 1,,貴船城入口,,33.318152,131.4802626,116 1,,0,,,,
116 2,,貴船城入口,,33.3184662,131.4807045,116 2,,0,,,,
117 1,,北鉄輪,,33.3208354,131.4800936,117 1,,0,,,,
117 2,,北鉄輪,,33.3207209,131.480324,117 2,,0,,,,
118 1,,野田,,33.3237612,131.4784485,118 1,,0,,,,
118 2,,野田,,33.3236939,131.4785219,118 2,,0,,,,
119 1,,柴石温泉入口,,33.3265195,131.4747602,119 1,,0,,,,
119 2,,柴石温泉入口,,33.3264761,131.4748464,119 2,,0,,,,
12 0,,荘園住宅前,,33.2969702,131.4806108,12 0,,0,,,,
12 1,,荘園住宅前,,33.29698717,131.4807718,12 1,,0,,,,
12 2,,荘園住宅前,,33.2969625,131.480631,12 2,,0,,,,
120 1,,城の内,,33.3284246,131.4769111,120 1,,0,,,,
120 2,,城の内,,33.3282713,131.4765922,120 2,,0,,,,
121 1,,血の池地獄前,,33.3277751,131.478878,121 1,,0,,,,
121 2,,血の池地獄前,,33.3274245,131.4791261,121 2,,0,,,,
122 1,,湯の森,,33.3299055,131.4830812,122 1,,0,,,,
122 2,,湯の森,,33.3297991,131.4830414,122 2,,0,,,,
123 1,,亀川亀陽泉前,,33.3259503,131.4955047,123 1,,0,,,,
123 2,,亀川亀陽泉前,,33.3260591,131.4953314,123 2,,0,,,,
124 1,,弁天前,,33.3244783,131.4963106,124 1,,0,,,,
124 2,,弁天前,,33.3248129,131.4959886,124 2,,0,,,,
125 1,,照波園,,33.3207166,131.498456,125 1,,0,,,,
125 2,,照波園,,33.3207163,131.4982812,125 2,,0,,,,
126 1,,AMANE RESORT前,,33.3167817,131.5001288,126 1,,0,,,,
126 2,,AMANE RESORT前,,33.3167631,131.4998548,126 2,,0,,,,
127 1,,上人ヶ浜公園前,,33.31456,131.5006548,127 1,,0,,,,
127 2,,上人ヶ浜公園前,,33.3144441,131.500395,127 2,,0,,,,
128 0,,西別府団地,,33.2896042,131.4694161,128 0,,0,,,,
128 1,,西別府団地,,33.289542,131.4695129,128 1,,0,,,,
128 2,,西別府団地,,33.2892565,131.4689985,128 2,,0,,,,
129 1,,生目神社前,,33.2894903,131.4669921,129 1,,0,,,,
129 2,,生目神社前,,33.2895807,131.4671588,129 2,,0,,,,
13 0,,老人ホーム前,,33.298784,131.4781354,13 0,,0,,,,
13 1,,老人ホーム前,,33.2985493,131.4784326,13 1,,0,,,,
13 2,,老人ホーム前,,33.2987779,131.4781421,13 2,,0,,,,
130 1,,本町,,33.287661,131.4668525,130 1,,0,,,,
130 2,,本町,,33.287423,131.4656735,130 2,,0,,,,
131 1,,堀田,,33.28788783,131.4632403,131 1,,0,,,,
131 2,,堀田,,33.2876927,131.4628993,131 2,,0,,,,
132 1,,板の平向井病院前,,33.29048749,131.4594739,132 1,,0,,,,
132 2,,板の平向井病院前,,33.2897757,131.4593577,132 2,,0,,,,
133 1,,市営サッカー場前,,33.2975339,131.4871363,133 1,,0,,,,
134 1,,鶴見病院前,,33.2983263,131.4897319,134 1,,0,,,,
134 2,,鶴見病院前,,33.2982484,131.4901581,134 2,,0,,,,
135 0,,南石垣,,33.2916332,131.4958057,135 0,,0,,,,
135 1,,南石垣,,33.2914631,131.4960648,135 1,,0,,,,
135 2,,南石垣,,33.2916163,131.4957795,135 2,,0,,,,
135 3,,南石垣,,33.29237126,131.4961041,135 3,,0,,,,
135 4,,南石垣,,33.2922389,131.4961723,135 4,,0,,,,
136 1,,下田中,,33.2926296,131.4985785,136 1,,0,,,,
136 2,,下田中,,33.2925226,131.4985033,136 2,,0,,,,
137 1,,富士見３丁目,,33.28518881,131.5029038,137 1,,0,,,,
137 2,,富士見３丁目,,33.28502216,131.5027205,137 2,,0,,,,
138 1,,富士見４丁目,,33.2849246,131.5003807,138 1,,0,,,,
138 2,,富士見４丁目,,33.2847998,131.500399,138 2,,0,,,,
139 1,,富士見６丁目,,33.2847217,131.4981231,139 1,,0,,,,
139 2,,富士見６丁目,,33.2845741,131.4981379,139 2,,0,,,,
14 1,,原,,33.3015568,131.4767799,14 1,,0,,,,
14 2,,原,,33.3004662,131.476482,14 2,,0,,,,
14 3,,原,,33.3015389,131.476796,14 3,,0,,,,
140 0,,幸通り,,33.2861758,131.4964318,140 0,,0,,,,
140 1,,幸通り,,33.2859433,131.4966351,140 1,,0,,,,
140 2,,幸通り,,33.2861702,131.4964132,140 2,,0,,,,
141 0,,石垣幸橋,,33.2897441,131.4960076,141 0,,0,,,,
141 1,,石垣幸橋,,33.2900459,131.4961992,141 1,,0,,,,
141 2,,石垣幸橋,,33.2897686,131.4959958,141 2,,0,,,,
142 0,,宝泉寺,,33.2938065,131.4956402,142 0,,0,,,,
142 1,,宝泉寺,,33.2938923,131.4958437,142 1,,0,,,,
142 2,,宝泉寺,,33.2937899,131.4956363,142 2,,0,,,,
143 0,,吉弘温泉前,,33.2966794,131.495352,143 0,,0,,,,
143 1,,吉弘温泉前,,33.2966088,131.49558,143 1,,0,,,,
143 2,,吉弘温泉前,,33.2967029,131.4953627,143 2,,0,,,,
144 0,,吉弘神社前,,33.2984276,131.4951866,144 0,,0,,,,
144 1,,吉弘神社前,,33.2986186,131.4953912,144 1,,0,,,,
144 2,,吉弘神社前,,33.2984097,131.495196,144 2,,0,,,,
145 0,,石垣８丁目,,33.3014111,131.4949133,145 0,,0,,,,
145 1,,石垣８丁目,,33.3014015,131.4951179,145 1,,0,,,,
145 2,,石垣８丁目,,33.3013839,131.4949147,145 2,,0,,,,
146 0,,石垣９丁目,,33.3032297,131.4947486,146 0,,0,,,,
146 1,,石垣９丁目,,33.3035739,131.4949176,146 1,,0,,,,
146 2,,石垣９丁目,,33.3032041,131.494746,146 2,,0,,,,
147 0,,北石垣,,33.305299,131.4924863,147 0,,0,,,,
147 1,,北石垣,,33.3054782,131.4920345,147 1,,0,,,,
147 2,,北石垣,,33.3052998,131.4925346,147 2,,0,,,,
148 0,,東荘園町,,33.2928929,131.4877929,148 0,,0,,,,
148 2,,東荘園町,,33.2927887,131.4881013,148 2,,0,,,,
149 1,,平和記念塔入口,,33.3022366,131.4819397,149 1,,0,,,,
149 2,,平和記念塔入口,,33.3023306,131.481801,149 2,,0,,,,
15 1,,大畑,,33.3033795,131.4738611,15 1,,0,,,,
150 1,,西法寺,,33.3046037,131.4802192,150 1,,0,,,,
150 2,,西法寺,,33.3045994,131.4801276,150 2,,0,,,,
151 1,,新別府,,33.3067141,131.4818296,151 1,,0,,,,
151 2,,新別府,,33.3069103,131.4816459,151 2,,0,,,,
152 1,,馬場,,33.3069358,131.4786002,152 1,,0,,,,
153 0,,餅ヶ浜２組,,33.2949195,131.5013209,153 0,,0,,,,
153 1,,餅ヶ浜２組,,33.2949358,131.5013202,153 1,,0,,,,
153 2,,餅ヶ浜２組,,33.2948875,131.5012305,153 2,,0,,,,
154 0,,新港町,,33.2983205,131.5012339,154 0,,0,,,,
154 1,,新港町,,33.2983032,131.5012304,154 1,,0,,,,
154 2,,新港町,,33.2982432,131.5011277,154 2,,0,,,,
155 0,,船小路,,33.3018396,131.5011025,155 0,,0,,,,
155 1,,船小路,,33.3015505,131.501014,155 1,,0,,,,
155 2,,船小路,,33.301871,131.5011038,155 2,,0,,,,
156 0,,汐見町,,33.3055718,131.5001564,156 0,,0,,,,
156 1,,汐見町,,33.3055762,131.5001873,156 1,,0,,,,
156 2,,汐見町,,33.3054042,131.5005775,156 2,,0,,,,
157 0,,娘田,,33.3055551,131.4982773,157 0,,0,,,,
157 1,,娘田,,33.3055552,131.4983283,157 1,,0,,,,
157 2,,娘田,,33.3053766,131.4980395,157 2,,0,,,,
158 0,,大藪,,33.3055169,131.4950451,158 0,,0,,,,
158 1,,大藪,,33.305516,131.4949966,158 1,,0,,,,
158 2,,大藪,,33.3053354,131.4954091,158 2,,0,,,,
159 1,,古寺,,33.3076898,131.4881929,159 1,,0,,,,
159 2,,古寺,,33.30760282,131.4880207,159 2,,0,,,,
16 1,,竹の内,,33.304077,131.4707863,16 1,,0,,,,
16 2,,竹の内,,33.3039789,131.4707631,16 2,,0,,,,
160 1,,別府総合庁舎前,,33.3115385,131.4856613,160 1,,0,,,,
160 2,,別府総合庁舎前,,33.3109451,131.4859735,160 2,,0,,,,
161 1,,湯の川口,,33.3119411,131.4844036,161 1,,0,,,,
161 2,,湯の川口,,33.3118652,131.4839937,161 2,,0,,,,
162 1,,砂原,,33.3127808,131.4806799,162 1,,0,,,,
162 2,,砂原,,33.3125981,131.4806667,162 2,,0,,,,
165 1,,野口原児童公園前,,33.2908901,131.4890452,165 1,,0,,,,
165 2,,野口原児童公園前,,33.2908226,131.4892394,165 2,,0,,,,
166 1,,荘園郵便局前,,33.291532,131.4813664,166 1,,0,,,,
166 2,,荘園郵便局前,,33.2914765,131.4813002,166 2,,0,,,,
167 1,,館石,,33.2927607,131.4718774,167 1,,0,,,,
168 1,,西別府橋,,33.2930494,131.4696222,168 1,,0,,,,
169 0,,生目町,,33.2911473,131.4685831,169 0,,0,,,,
169 1,,生目町,,33.2916718,131.468652,169 1,,0,,,,
17 1,,今井,,33.3060396,131.4678198,17 1,,0,,,,
170 0,,南立石２区,,33.289934,131.4705576,170 0,,0,,,,
170 1,,南立石２区,,33.2899376,131.4705351,170 1,,0,,,,
171 1,,西別府団地温泉前,,33.2909725,131.4692913,171 1,,0,,,,
172 1,,恵下,,33.2899263,131.4563127,172 1,,0,,,,
172 2,,恵下,,33.289398,131.4562774,172 2,,0,,,,
173 1,,別府ロープウェイ,,33.2778099,131.4483703,173 1,,0,,,,
173 2,,別府ロープウェイ,,33.2777627,131.4482472,173 2,,0,,,,
174 1,,旗の台,,33.2747917,131.4448278,174 1,,0,,,,
174 2,,旗の台,,33.2746634,131.4448472,174 2,,0,,,,
175 0,,鳥居,,33.2696358,131.4419113,175 0,,0,,,,
175 1,,鳥居,,33.2696956,131.441859,175 1,,0,,,,
175 2,,鳥居,,33.2699969,131.4425164,175 2,,0,,,,
176 1,,トンネル口,,33.2699496,131.4355036,176 1,,0,,,,
176 2,,トンネル口,,33.2698947,131.4353563,176 2,,0,,,,
177 1,,片山,,33.2697583,131.4304824,177 1,,0,,,,
177 2,,片山,,33.2691742,131.4305304,177 2,,0,,,,
178 1,,城島高原,,33.2686963,131.4261804,178 1,,0,,,,
178 2,,城島高原,,33.2686678,131.4257907,178 2,,0,,,,
179 1,,城島高原パーク,,33.2670186,131.426381,179 1,,0,,,,
179 2,,城島高原パーク,,33.2670183,131.4263976,179 2,,0,,,,
18 1,,鶴見ヶ丘団地東口,,33.3066591,131.4656067,18 1,,0,,,,
180 1,,猪の瀬戸,,33.2748896,131.4125193,180 1,,0,,,,
180 2,,猪の瀬戸,,33.274751,131.4124362,180 2,,0,,,,
181 1,,由布登山口,,33.2649902,131.3966118,181 1,,0,,,,
181 2,,由布登山口,,33.2649925,131.3966466,181 2,,0,,,,
182 1,,中の原,,33.2590579,131.3804355,182 1,,0,,,,
182 2,,中の原,,33.2588877,131.3804981,182 2,,0,,,,
183 1,,岳本,,33.2688267,131.3666793,183 1,,0,,,,
183 2,,岳本,,33.2687768,131.3668119,183 2,,0,,,,
184 1,,湯の坪,,33.2673891,131.3625847,184 1,,0,,,,
184 2,,湯の坪,,33.2673455,131.3627531,184 2,,0,,,,
185 1,,由布見通り入口,,33.2666324,131.3604433,185 1,,0,,,,
185 2,,由布見通り入口,,33.2664784,131.3602497,185 2,,0,,,,
186 1,,岩男病院前,,33.2661346,131.3577428,186 1,,0,,,,
186 2,,岩男病院前,,33.2661079,131.3581458,186 2,,0,,,,
187 0,,由布院駅前バスセンター,,33.262918,131.3556317,187 0,,0,,,,
187 1,,由布院駅前バスセンター,,33.2629224,131.3556438,187 1,,0,,,,
188 0,,志高,,33.2672405,131.4449812,188 0,,0,,,,
188 1,,志高,,33.2672629,131.44489,188 1,,0,,,,
189 1,,志高湖畔,,33.2643388,131.4518909,189 1,,0,,,,
19 1,,ベネフィットフォーユー前,,33.308918,131.4642387,19 1,,0,,,,
2 1,,西野口,,33.2835257,131.496887,2 1,,0,,,,
2 2,,西野口,,33.2830457,131.4968396,2 2,,0,,,,
20 1,,本坊主,,33.3110192,131.465165,20 1,,0,,,,
20 2,,本坊主,,33.3108913,131.465329,20 2,,0,,,,
200001 1,,別府駅西口,,33.2797572,131.4999863,200001 1,,0,,,,2
21 1,,朝日中学校前,,33.3119901,131.4666894,21 1,,0,,,,
21 2,,朝日中学校前,,33.311896,131.4669259,21 2,,0,,,,
22 1,,別府リハビリテーションセンター入口,,33.3130861,131.4683775,22 1,,0,,,,
22 2,,別府リハビリテーションセンター入口,,33.3127672,131.4682476,22 2,,0,,,,
22 3,,別府リハビリテーションセンター入口,,33.3130898,131.46839,22 3,,0,,,,
23 1,,海地獄前,,33.314967,131.4707421,23 1,,0,,,,
23 2,,海地獄前,,33.3149851,131.471473,23 2,,0,,,,
23 3,,海地獄前,,33.3149662,131.4707486,23 3,,0,,,,
23 4,,海地獄前,,33.3149644,131.4707351,23 4,,0,,,,
235 1,,流川ゆめタウン前,,33.2772287,131.5066649,235 1,,0,,,,
235 2,,流川ゆめタウン前,,33.2766745,131.50628,235 2,,0,,,,
24 0,,鉄輪,,33.3160744,131.4756455,24 0,,0,,,,
24 1,,鉄輪,,33.3161291,131.4756489,24 1,,0,,,,
24 2,,鉄輪,,33.3161291,131.4756499,24 2,,0,,,,
24 3,,鉄輪,,33.3161302,131.4756507,24 3,,0,,,,
24 4,,鉄輪,,33.3161296,131.4756513,24 4,,0,,,,
25 1,,ホテル白菊前,,33.2804337,131.4947234,25 1,,0,,,,
25 2,,ホテル白菊前,,33.2803306,131.4947374,25 2,,0,,,,
25 4,,ホテル白菊前,,33.2803322,131.4947587,25 4,,0,,,,
26 1,,別府公園前,,33.2834222,131.493342,26 1,,0,,,,
26 2,,別府公園前,,33.2836222,131.4931955,26 2,,0,,,,
26 4,,別府公園前,,33.2836095,131.493171,26 4,,0,,,,
267 1,,照湯,,33.3100321,131.4616396,267 1,,0,,,,
267 2,,照湯,,33.3097905,131.4617714,267 2,,0,,,,
268 1,,霊園入口,,33.3132295,131.4600246,268 1,,0,,,,
268 2,,霊園入口,,33.313637,131.4595684,268 2,,0,,,,
268 3,,霊園入口,,33.3136244,131.4595868,268 3,,0,,,,
269 1,,紺屋地獄前,,33.3146969,131.4578842,269 1,,0,,,,
269 2,,紺屋地獄前,,33.3145296,131.4578514,269 2,,0,,,,
27 0,,市役所前,,33.2839653,131.4902446,27 0,,0,,,,
27 1,,市役所前,,33.2839687,131.4902808,27 1,,0,,,,
27 2,,市役所前,,33.2839106,131.4912792,27 2,,0,,,,
270 1,,明礬,,33.3169242,131.4539448,270 1,,0,,,,
270 2,,明礬,,33.3165858,131.453192,270 2,,0,,,,
271 1,,地蔵湯前,,33.318061,131.4524675,271 1,,0,,,,
271 2,,地蔵湯前,,33.3181476,131.452414,271 2,,0,,,,
272 1,,静雲荘前,,33.3228215,131.4547074,272 1,,0,,,,
272 2,,静雲荘前,,33.3227431,131.4546418,272 2,,0,,,,
273 1,,湯山,,33.3252047,131.4536063,273 1,,0,,,,
273 2,,湯山,,33.3251537,131.4532556,273 2,,0,,,,
274 1,,射撃場入口,,33.3258931,131.4498698,274 1,,0,,,,
274 2,,射撃場入口,,33.3259208,131.4498681,274 2,,0,,,,
275 1,,十文字原展望台前,,33.330561,131.4579235,275 1,,0,,,,
275 2,,十文字原展望台前,,33.330562,131.4579697,275 2,,0,,,,
276 1,,大所,,33.3463971,131.4560555,276 1,,0,,,,
277 1,,目刈口,,33.3515678,131.4445121,277 1,,0,,,,
278 1,,堀の口,,33.3439546,131.4280075,278 1,,0,,,,
279 1,,天間草原別府霊園前,,33.3426537,131.422561,279 1,,0,,,,
28 0,,ビーコンプラザ前,,33.2836852,131.4875408,28 0,,0,,,,
28 1,,ビーコンプラザ前,,33.2837087,131.4875542,28 1,,0,,,,
28 2,,ビーコンプラザ前,,33.2834774,131.4870355,28 2,,0,,,,
28 3,,ビーコンプラザ前,,33.2836852,131.487569,28 3,,0,,,,
28 4,,ビーコンプラザ前,,33.283474,131.4870114,28 4,,0,,,,
280 0,,サファリ,,33.3503803,131.4144249,280 0,,0,,,,
280 1,,サファリ,,33.3503792,131.4144807,280 1,,0,,,,
282 1,,上天間,,33.3353841,131.4092869,282 1,,0,,,,
283 1,,天間小学校,,33.3358709,131.4059433,283 1,,0,,,,
284 1,,天間,,33.3368834,131.4040561,284 1,,0,,,,
285 1,,須崎,,33.3420182,131.3991821,285 1,,0,,,,
286 1,,発電所口,,33.343373,131.4004622,286 1,,0,,,,
288 1,,仙人田,,33.3489203,131.3994608,288 1,,0,,,,
29 0,,明豊キャンパス前,,33.2835483,131.4830586,29 0,,0,,,,
29 1,,明豊キャンパス前,,33.2835472,131.4830874,29 1,,0,,,,
29 2,,明豊キャンパス前,,33.2833405,131.4834437,29 2,,0,,,,
29 3,,明豊キャンパス前,,33.283546,131.4831163,29 3,,0,,,,
29 4,,明豊キャンパス前,,33.2833417,131.4834122,29 4,,0,,,,
3 0,,富士見９丁目,,33.2843742,131.494561,3 0,,0,,,,
3 1,,富士見９丁目,,33.2843763,131.4945884,3 1,,0,,,,
3 2,,富士見９丁目,,33.2843585,131.4958414,3 2,,0,,,,
30 0,,中津留,,33.283831,131.4807795,30 0,,0,,,,
30 1,,中津留,,33.2848774,131.479356,30 1,,0,,,,
30 2,,中津留,,33.2838008,131.4805767,30 2,,0,,,,
30 3,,中津留,,33.2848702,131.4793431,30 3,,0,,,,
30 4,,中津留,,33.2837723,131.4805904,30 4,,0,,,,
300001 2,,別府駅西口,,33.27976,131.4999297,300001 2,,0,,,,3
300001 3,,別府駅西口３,,33.2797588,131.4999578,300001 3,,0,,,,
31 1,,観海寺入口,,33.2841906,131.4779208,31 1,,0,,,,
31 2,,観海寺入口,,33.2840862,131.4762115,31 2,,0,,,,
31 3,,観海寺入口,,33.284191,131.4779265,31 3,,0,,,,
31 4,,観海寺入口,,33.2840837,131.4762255,31 4,,0,,,,
31 6,,観海寺入口,,33.28362186,131.4767228,31 6,,0,,,,
32 1,,霊泉寺,,33.2867741,131.4737989,32 1,,0,,,,
32 2,,霊泉寺,,33.2871088,131.4733596,32 2,,0,,,,
32 3,,霊泉寺,,33.2867617,131.4738173,32 3,,0,,,,
32 4,,霊泉寺,,33.2870885,131.4733744,32 4,,0,,,,
33 1,,南立石小学校前,,33.2887314,131.4745396,33 1,,0,,,,
33 2,,南立石小学校前,,33.2891222,131.4748903,33 2,,0,,,,
34 1,,南立石公園前,,33.2895494,131.4753613,34 1,,0,,,,
34 2,,南立石公園前,,33.2900156,131.4756909,34 2,,0,,,,
35 1,,西別府病院下,,33.2919549,131.4762659,35 1,,0,,,,
35 2,,西別府病院下,,33.2931386,131.4762019,35 2,,0,,,,
35 3,,西別府病院下,,33.2926338,131.4768456,35 3,,0,,,,
35 4,,西別府病院下,,33.292715,131.475821,35 4,,0,,,,
353 1,,永石温泉前,,33.2731334,131.5030767,353 1,,0,,,,
354 1,,永石６丁目,,33.2729218,131.5012756,354 1,,0,,,,
355 1,,御幸橋,,33.2726122,131.4987136,355 1,,0,,,,
356 1,,公会堂前,,33.2769114,131.4977454,356 1,,0,,,,
356 2,,公会堂前,,33.2771246,131.4975215,356 2,,0,,,,
357 1,,田の湯,,33.2787139,131.4975203,357 1,,0,,,,
357 2,,田の湯,,33.2787696,131.4973185,357 2,,0,,,,
358 1,,別府警察署前,,33.2796433,131.4973906,358 1,,0,,,,
358 2,,別府警察署前,,33.2796849,131.4971996,358 2,,0,,,,
359 2,,青山町,,33.2800725,131.4918546,359 2,,0,,,,
36 1,,西別府病院正門前,,33.2928605,131.4748284,36 1,,0,,,,
36 2,,西別府病院正門前,,33.2928074,131.4746627,36 2,,0,,,,
365 0,,青中前,,33.2896376,131.4848036,365 0,,0,,,,
366 0,,南荘園町,,33.2890719,131.4819336,366 0,,0,,,,
367 0,,明星上,,33.287699,131.4817472,367 0,,0,,,,
368 0,,明星下,,33.2836171,131.48481,368 0,,0,,,,
368 1,,明星下,,33.2835969,131.4848208,368 1,,0,,,,
369 0,,別府翔青高校上,,33.2860007,131.4848157,369 0,,0,,,,
369 1,,別府翔青高校上,,33.2860253,131.4848331,369 1,,0,,,,
37 1,,扇山温泉下,,33.2939341,131.4723511,37 1,,0,,,,
370 0,,別府翔青高校前,,33.2878647,131.4850492,370 0,,0,,,,
370 1,,別府翔青高校前,,33.28788821,131.4850385,370 1,,0,,,,
373 1,,太陽の家,,33.3313932,131.4895275,373 1,,0,,,,
373 2,,太陽の家,,33.3314279,131.4895391,373 2,,0,,,,
375 1,,亀川浜田,,33.3337591,131.4905892,375 1,,0,,,,
375 2,,亀川浜田,,33.3336955,131.4907082,375 2,,0,,,,
377 0,,湯都ピア浜脇,,33.2695382,131.5083925,377 0,,0,,,,
377 1,,湯都ピア浜脇,,33.2695411,131.5084136,377 1,,0,,,,
378 1,,南町,,33.2721302,131.5043545,378 1,,0,,,,
379 2,,やまなみ苑前,,33.2902847,131.4578177,379 2,,0,,,,
38 1,,館石団地前,,33.2943183,131.4698236,38 1,,0,,,,
380 0,,立命館アジア太平洋大学,,33.3379212,131.4686584,380 0,,0,,,,
380 1,,立命館アジア太平洋大学,,33.3379203,131.4686719,380 1,,0,,,,
380 2,,立命館アジア太平洋大学,,33.3379123,131.468652,380 2,,0,,,,
383 0,,別府北浜,,33.2803645,131.506176,383 0,,0,,,,
383 1,,別府北浜,,33.2803758,131.5061669,383 1,,0,,,,3
39 1,,扇山公民館前,,33.2953311,131.4677303,39 1,,0,,,,
39 2,,扇山公民館前,,33.2952604,131.4677096,39 2,,0,,,,
390 0,,東山小中学校前,,33.2661595,131.4492257,390 0,,0,,,,
390 1,,東山小中学校前,,33.2661585,131.4492559,390 1,,0,,,,
4 1,,上野口,,33.2854891,131.4911464,4 1,,0,,,,
4 2,,上野口,,33.2852642,131.4915446,4 2,,0,,,,
40 1,,扇山町,,33.2956612,131.464492,40 1,,0,,,,
40 2,,扇山町,,33.2956192,131.4638296,40 2,,0,,,,
41 1,,扇山２３組,,33.2957868,131.4622224,41 1,,0,,,,
411 0,,港中央通り,,33.3034066,131.5010625,411 0,,0,,,,
411 1,,港中央通り,,33.3033866,131.5010616,411 1,,0,,,,
411 2,,港中央通り,,33.3033931,131.5009647,411 2,,0,,,,
412 1,,堀田温泉前,,33.2888913,131.4613947,412 1,,0,,,,
412 2,,堀田温泉前,,33.2886838,131.4612947,412 2,,0,,,,
42 1,,自衛隊前,,33.2961565,131.4610562,42 1,,0,,,,
42 2,,自衛隊前,,33.2962376,131.4608599,42 2,,0,,,,
423 1,,竹細工伝産会館前,,33.2983816,131.4850072,423 1,,0,,,,
424 2,,総合体育館前,,33.278224,131.4916011,424 2,,0,,,,
425 1,,鉄輪口,,33.3142744,131.4738321,425 1,,0,,,,
43 1,,ゴルフ場入口,,33.3008842,131.4614134,43 1,,0,,,,
43 2,,ゴルフ場入口,,33.3007836,131.4612371,43 2,,0,,,,
430 1,,ANAインターコンチネンタル別府前,,33.3191378,131.4586749,430 1,,0,,,,
430 2,,ANAインターコンチネンタル別府前,,33.31965101,131.4580226,430 2,,0,,,,
44 0,,扇山団地入口,,33.3016796,131.4620243,44 0,,0,,,,
44 1,,扇山団地入口,,33.3015816,131.462022,44 1,,0,,,,
45 0,,扇山団地,,33.3032477,131.4648851,45 0,,0,,,,
45 1,,扇山団地,,33.3032298,131.4648422,45 1,,0,,,,
46 2,,観海寺橋,,33.2827771,131.4758846,46 2,,0,,,,
47 0,,スギノイパレス,,33.2844255,131.47277,47 0,,0,,,,
47 1,,スギノイパレス,,33.2844233,131.4727942,47 1,,0,,,,
48 1,,別府発達医療センター前,,33.2965699,131.4763171,48 1,,0,,,,
48 2,,別府発達医療センター前,,33.2960555,131.4762517,48 2,,0,,,,
49 0,,下畑,,33.3038029,131.4759873,49 0,,0,,,,
49 1,,下畑,,33.3034704,131.4761662,49 1,,0,,,,
49 2,,下畑,,33.3037922,131.475996,49 2,,0,,,,
49 3,,下畑,,33.303457,131.4761675,49 3,,0,,,,
5 1,,野口原,,33.2885061,131.4882449,5 1,,0,,,,
5 2,,野口原,,33.2883252,131.4882823,5 2,,0,,,,
50 0,,新別府口,,33.3061643,131.475278,50 0,,0,,,,
50 1,,新別府口,,33.3070486,131.4750893,50 1,,0,,,,
50 2,,新別府口,,33.3061879,131.4752646,50 2,,0,,,,
50 3,,新別府口,,33.3070329,131.4751013,50 3,,0,,,,
500097 3,,別府北浜,,33.2794031,131.5055151,500097 3,,0,,,,5
500097 4,,別府北浜５,,33.2794127,131.505473,500097 4,,0,,,,
51 0,,朝日小学校前,,33.3099959,131.4745531,51 0,,0,,,,
51 1,,朝日小学校前,,33.3098364,131.4746094,51 1,,0,,,,
51 2,,朝日小学校前,,33.310013,131.4745566,51 2,,0,,,,
51 3,,朝日小学校前,,33.3098257,131.4746125,51 3,,0,,,,
515 0,,別府リハビリテーションセンター,,33.3136946,131.4637934,515 0,,0,,,,
515 1,,別府リハビリテーションセンター,,33.3136935,131.4637106,515 1,,0,,,,
515 2,,別府リハビリテーションセンター前,,33.313694,131.463763,515 2,,0,,,,
52 0,,火売町,,33.3116961,131.4748845,52 0,,0,,,,
52 1,,火売町,,33.3115433,131.4749353,52 1,,0,,,,
52 2,,火売町,,33.3117078,131.4748797,52 2,,0,,,,
52 3,,火売町,,33.311536,131.4749315,52 3,,0,,,,
53 0,,朝日,,33.3130619,131.4752624,53 0,,0,,,,
53 1,,朝日,,33.3127874,131.4753188,53 1,,0,,,,
53 2,,朝日,,33.3130453,131.4752624,53 2,,0,,,,
53 3,,朝日,,33.3127708,131.4753135,53 3,,0,,,,
54 1,,別府市役所下,,33.2855607,131.4930565,54 1,,0,,,,
54 2,,別府市役所下,,33.2856219,131.4929516,54 2,,0,,,,
55 1,,天満町,,33.288009,131.492741,55 1,,0,,,,
55 2,,天満町,,33.2879888,131.4926599,55 2,,0,,,,
56 1,,境川小学校前,,33.2895614,131.4925538,56 1,,0,,,,
56 2,,境川小学校前,,33.2897232,131.4924393,56 2,,0,,,,
57 0,,中部中学校前,,33.2924406,131.4915648,57 0,,0,,,,
57 1,,中部中学校前,,33.2915375,131.492074,57 1,,0,,,,
57 2,,中部中学校前,,33.292415,131.4915729,57 2,,0,,,,
57 3,,中部中学校前,,33.2921254,131.4923757,57 3,,0,,,,
57 4,,中部中学校前,,33.2920057,131.491494,57 4,,0,,,,
58 0,,鶴高正門前,,33.2936964,131.4914147,58 0,,0,,,,
58 1,,鶴高正門前,,33.2937044,131.4915151,58 1,,0,,,,
58 2,,鶴高正門前,,33.2937222,131.4914107,58 2,,0,,,,
59 0,,鶴見病院東口,,33.2969092,131.4914244,59 0,,0,,,,
59 1,,鶴見病院東口,,33.2969327,131.4914177,59 1,,0,,,,
59 2,,鶴見病院東口,,33.2969307,131.4913184,59 2,,0,,,,
6 0,,朝日橋,,33.2906077,131.4863358,6 0,,0,,,,
6 1,,朝日橋,,33.290218,131.4867061,6 1,,0,,,,
6 2,,朝日橋,,33.2906301,131.4863224,6 2,,0,,,,
6 3,,朝日橋,,33.2909061,131.486977,6 3,,0,,,,
6 4,,朝日橋,,33.2908439,131.4868148,6 4,,0,,,,
60 0,,鶴見台中学校前,,33.2998338,131.4907713,60 0,,0,,,,
60 1,,鶴見台中学校前,,33.2996418,131.4908923,60 1,,0,,,,
60 2,,鶴見台中学校前,,33.2998036,131.4907766,60 2,,0,,,,
61 0,,是定,,33.3024747,131.4906232,61 0,,0,,,,
61 1,,是定,,33.3017896,131.4907797,61 1,,0,,,,
61 2,,是定,,33.3024473,131.4906205,61 2,,0,,,,
62 0,,春木,,33.3065024,131.4916247,62 0,,0,,,,
62 1,,春木,,33.3065022,131.4917105,62 1,,0,,,,
62 2,,春木,,33.3064856,131.4916273,62 2,,0,,,,
63 0,,中須賀,,33.308852,131.4927894,63 0,,0,,,,
63 1,,中須賀,,33.3089744,131.4929218,63 1,,0,,,,
63 2,,中須賀,,33.3088554,131.4927842,63 2,,0,,,,
64 0,,桜ヶ丘,,33.3108479,131.4932985,64 0,,0,,,,
64 1,,桜ヶ丘,,33.3106705,131.493335,64 1,,0,,,,
64 2,,桜ヶ丘,,33.3108383,131.4932992,64 2,,0,,,,
65 0,,別府大学下,,33.3127901,131.4937555,65 0,,0,,,,
65 1,,別府大学下,,33.3126878,131.4938053,65 1,,0,,,,
65 2,,別府大学下,,33.3127941,131.4937565,65 2,,0,,,,
65 3,,別府大学下,,33.3126165,131.4934977,65 3,,0,,,,
65 4,,別府大学下,,33.3126112,131.4932578,65 4,,0,,,,
66 0,,上人小学校前,,33.3164413,131.493477,66 0,,0,,,,
66 1,,上人小学校前,,33.3164394,131.4935728,66 1,,0,,,,
66 2,,上人小学校前,,33.3164491,131.4934961,66 2,,0,,,,
67 0,,平田,,33.3176353,131.4931539,67 0,,0,,,,
67 1,,平田,,33.3176465,131.4932035,67 1,,0,,,,
67 2,,平田,,33.3176302,131.4931575,67 2,,0,,,,
68 0,,儀丁場,,33.3206939,131.4936437,68 0,,0,,,,
68 1,,儀丁場,,33.3207073,131.4937155,68 1,,0,,,,
68 2,,儀丁場,,33.3207076,131.4936444,68 2,,0,,,,
69 0,,四の湯,,33.3219014,131.4936113,69 0,,0,,,,
69 1,,四の湯,,33.3219154,131.4936642,69 1,,0,,,,
69 2,,四の湯,,33.3219068,131.493611,69 2,,0,,,,
7 0,,荘園町,,33.2918909,131.4820747,7 0,,0,,,,
7 1,,荘園町,,33.2917851,131.4821825,7 1,,0,,,,
7 2,,荘園町,,33.2918822,131.4820781,7 2,,0,,,,
70 0,,亀川中町,,33.3234615,131.4936556,70 0,,0,,,,
70 1,,亀川中町,,33.3234515,131.4937085,70 1,,0,,,,
70 2,,亀川中町,,33.3234634,131.4936567,70 2,,0,,,,
71 0,,亀陽泉,,33.3264344,131.4938545,71 0,,0,,,,
71 1,,亀陽泉,,33.3264353,131.4938994,71 1,,0,,,,
71 2,,亀陽泉,,33.3264295,131.4938531,71 2,,0,,,,
72 0,,亀川新川,,33.329114,131.4937868,72 0,,0,,,,
72 1,,亀川新川,,33.3291541,131.4938735,72 1,,0,,,,
72 2,,亀川新川,,33.3291023,131.4937977,72 2,,0,,,,
72 3,,亀川新川,,33.3291461,131.4938827,72 3,,0,,,,
72 5,,亀川新川,,33.3291468,131.4938755,72 5,,0,,,,
72 6,,亀川新川,,33.3291143,131.4938024,72 6,,0,,,,
73 0,,亀川駅,,33.3316293,131.4931682,73 0,,0,,,,
73 1,,亀川駅,,33.3316142,131.4931588,73 1,,0,,,,1
73 2,,亀川駅,,33.331598,131.4931621,73 2,,0,,,,1
73 3,,亀川駅,,33.3316371,131.4931789,73 3,,0,,,,
74 0,,別府溝部学園短大前,,33.3295207,131.4886854,74 0,,0,,,,
74 1,,別府溝部学園短大前,,33.329548,131.4888179,74 1,,0,,,,
74 2,,別府溝部学園短大前,,33.3295268,131.4886727,74 2,,0,,,,
75 0,,内竈入口,,33.3307002,131.4862286,75 0,,0,,,,
75 1,,内竈入口,,33.3308625,131.4862909,75 1,,0,,,,
75 2,,内竈入口,,33.330847,131.4862954,75 2,,0,,,,
76 0,,別府医療センター,,33.3322719,131.4870186,76 0,,0,,,,
76 1,,別府医療センター,,33.3322824,131.4870185,76 1,,0,,,,
76 2,,別府医療センター,,33.3322939,131.4870185,76 2,,0,,,,
77 1,,北中,,33.3135422,131.4773063,77 1,,0,,,,
77 2,,北中,,33.313431,131.4770606,77 2,,0,,,,
78 1,,地獄原・ひょうたん温泉,,33.3154408,131.4794575,78 1,,0,,,,
79 1,,大平井,,33.3155107,131.4810282,79 1,,0,,,,
8 0,,九大別府病院,,33.2932115,131.4803928,8 0,,0,,,,
8 1,,九大別府病院,,33.2932122,131.4804012,8 1,,0,,,,
80 1,,鉄輪東公園前,,33.3142949,131.483937,80 1,,0,,,,
81 1,,湯の川,,33.3130303,131.4846642,81 1,,0,,,,
81 2,,湯の川,,33.313112,131.4845696,81 2,,0,,,,
82 1,,大石・大分香りの博物館,,33.3119749,131.487029,82 1,,0,,,,
82 2,,大石・大分香りの博物館,,33.311889,131.487058,82 2,,0,,,,
83 1,,別大前,,33.3130626,131.4907202,83 1,,0,,,,
83 2,,別大前,,33.3129967,131.4906053,83 2,,0,,,,
84 1,,宝蓮寺,,33.3125569,131.4969921,84 1,,0,,,,
84 2,,宝蓮寺,,33.3125365,131.4963856,84 2,,0,,,,
85 1,,別大駅前,,33.3126844,131.4998682,85 1,,0,,,,
85 2,,別大駅前,,33.3126115,131.4997749,85 2,,0,,,,
86 1,,六勝園,,33.3122172,131.5012089,86 1,,0,,,,
86 2,,六勝園,,33.3129912,131.5007576,86 2,,0,,,,
87 1,,深町,,33.3093329,131.5018847,87 1,,0,,,,
87 2,,深町,,33.3090932,131.5016936,87 2,,0,,,,
88 1,,春木川,,33.3064189,131.5022304,88 1,,0,,,,
88 2,,春木川,,33.3065788,131.5019826,88 2,,0,,,,
89 1,,さんふらわあターミナル別府前,,33.3056175,131.5032553,89 1,,0,,,,
89 2,,さんふらわあターミナル別府前,,33.3056219,131.5032668,89 2,,0,,,,
9 0,,鶴見原,,33.2928863,131.486171,9 0,,0,,,,
9 1,,鶴見原,,33.2935267,131.4846443,9 1,,0,,,,
9 2,,鶴見原,,33.2932166,131.4846763,9 2,,0,,,,
9 4,,鶴見原,,33.2927873,131.4859593,9 4,,0,,,,
90 1,,第三埠頭入口,,33.3010318,131.502922,90 1,,0,,,,
90 2,,第三埠頭入口,,33.3010049,131.5029261,90 2,,0,,,,
91 1,,別府交通センター,,33.29848739,131.5027532,91 1,,0,,,,2
91 2,,別府交通センター,,33.2983548,131.5031419,91 2,,0,,,,3
92 1,,別府郵便局前,,33.2950893,131.502418,92 1,,0,,,,
92 2,,別府郵便局前,,33.2951566,131.5021489,92 2,,0,,,,
93 1,,餅ヶ浜,,33.2936225,131.5027089,93 1,,0,,,,
93 2,,餅ヶ浜,,33.2924992,131.5027928,93 2,,0,,,,
93 4,,餅ヶ浜,,33.2929491,131.5020804,93 4,,0,,,,
94 1,,京町,,33.2880367,131.5042513,94 1,,0,,,,
94 2,,京町,,33.2879469,131.5039866,94 2,,0,,,,
95 1,,的ヶ浜公園前,,33.2846402,131.5048813,95 1,,0,,,,
95 2,,的ヶ浜公園前,,33.284572,131.5045986,95 2,,0,,,,
96 1,,別府タワー前,,33.2816683,131.5057945,96 1,,0,,,,
96 2,,別府タワー前,,33.28220584,131.5053538,96 2,,0,,,,
97 1,,別府北浜,,33.2795327,131.5054355,97 1,,0,,,,1
97 2,,別府北浜,,33.2795344,131.505418,97 2,,0,,,,1
98 1,,駅前本町,,33.2793153,131.5018456,98 1,,0,,,,
98 2,,駅前本町,,33.2793221,131.5017992,98 2,,0,,,,
98 3,,駅前本町,,33.2792325,131.5018207,98 3,,0,,,,
98 4,,駅前本町,,33.2792476,131.5018042,98 4,,0,,,,
99 0,,別府駅,,33.2791594,131.5003105,99 0,,0,,,,5
99 1,,別府駅,,33.2791713,131.5003085,99 1,,0,,,,5
99 2,,別府駅,,33.2791832,131.5003192,99 2,,0,,,,5
