stop_id,stop_code,stop_name,stop_desc,stop_lat,stop_lon,zone_id,stop_url,location_type,parent_station,stop_timezone,wheelchair_boarding,platform_code
1000 1,,上二日市,,33.4419052,131.3321202,1000 1,,0,,,,
1000 2,,上二日市,,33.4418291,131.332206,1000 2,,0,,,,
1001 1,,二日市,,33.4441672,131.3333054,1001 1,,0,,,,
1001 2,,二日市,,33.4441068,131.333469,1001 2,,0,,,,
1002 1,,九人ケ峠,,33.447813,131.3320834,1002 1,,0,,,,
1002 2,,九人ケ峠,,33.4478242,131.3322282,1002 2,,0,,,,
1003 1,,上円座,,33.4486683,131.3316427,1003 1,,0,,,,
1003 2,,上円座,,33.4487371,131.3317721,1003 2,,0,,,,
1004 1,,円座,,33.4528865,131.3291376,1004 1,,0,,,,
1004 2,,円座,,33.4528798,131.3290276,1004 2,,0,,,,
1005 1,,上櫛野,,33.4557973,131.3287011,1005 1,,0,,,,
1005 2,,上櫛野,,33.4557839,131.3288325,1005 2,,0,,,,
1006 1,,下櫛野,,33.4625399,131.3309438,1006 1,,0,,,,
1006 2,,下櫛野,,33.4625489,131.3310806,1006 2,,0,,,,
1007 1,,掛,,33.4667012,131.3281354,1007 1,,0,,,,
1007 2,,掛,,33.4667281,131.3283124,1007 2,,0,,,,
1008 1,,香下,,33.4725866,131.3280651,1008 1,,0,,,,
1008 2,,香下,,33.4725419,131.3282582,1008 2,,0,,,,
1009 1,,大下,,33.4764578,131.3306738,1009 1,,0,,,,
1009 2,,大下,,33.4763817,131.3308347,1009 2,,0,,,,
1010 1,,両川,,33.4789,131.3336252,1010 1,,0,,,,
1010 2,,両川,,33.4787993,131.3337352,1010 2,,0,,,,
1011 1,,三又川,,33.4827701,131.3344623,1011 1,,0,,,,
1011 2,,三又川,,33.4827701,131.334591,1011 2,,0,,,,
1012 1,,白岩,,33.4903195,131.3298899,1012 1,,0,,,,
1012 2,,白岩,,33.4904716,131.3299435,1012 2,,0,,,,
1013 1,,鷹栖観音,,33.4989216,131.3249143,1013 1,,0,,,,
1013 2,,鷹栖観音,,33.4988992,131.3250591,1013 2,,0,,,,
1014 1,,拝田,,33.5034485,131.3291396,1014 1,,0,,,,
1014 2,,拝田,,33.5033546,131.3293166,1014 2,,0,,,,
1015 1,,下拝田,,33.5067524,131.3297164,1015 1,,0,,,,
1015 2,,下拝田,,33.5068195,131.3298505,1015 2,,0,,,,
1016 1,,山本,,33.5092866,131.3281621,1016 1,,0,,,,
1016 2,,山本,,33.5092642,131.3282506,1016 2,,0,,,,
1017 1,,上大塚入口,,33.5146203,131.3343017,1017 1,,0,,,,
1017 2,,上大塚入口,,33.5145957,131.3344009,1017 2,,0,,,,
1018 1,,新豊川,,33.5163183,131.3356859,1018 1,,0,,,,
1018 2,,新豊川,,33.5163463,131.335588,1018 2,,0,,,,
1019 1,,別府,,33.5192135,131.3401633,1019 1,,0,,,,
1019 2,,別府,,33.5191341,131.3402344,1019 2,,0,,,,
1020 1,,下別府,,33.5213686,131.3426578,1020 1,,0,,,,
1020 2,,下別府,,33.521306,131.3428523,1020 2,,0,,,,
1050 1,,葛原入口,,33.5359586,131.3295525,1050 1,,0,,,,
1051 1,,城井住宅前,,33.5390547,131.3304647,1051 1,,0,,,,
1052 1,,城,,33.5448463,131.3330661,1052 1,,0,,,,
1052 2,,城,,33.5448239,131.3332056,1052 2,,0,,,,
1053 1,,下城井,,33.549066,131.3352517,1053 1,,0,,,,
1054 1,,教覚寺,,33.5531165,131.3349146,1054 1,,0,,,,
1055 1,,上乙女,,33.5607,131.3380501,1055 1,,0,,,,
1056 1,,乙女,,33.5630494,131.3374116,1056 1,,0,,,,
1057 1,,八幡小学校前,,33.56348,131.332596,1057 1,,0,,,,
1058 1,,善光寺駅通り,,33.563741,131.3258083,1058 1,,0,,,,
1059 1,,荒瀬,,33.4241275,131.3198096,1059 1,,0,,,,
1059 2,,荒瀬,,33.4242283,131.3197131,1059 2,,0,,,,
1060 1,,大副,,33.4226076,131.3184269,1060 1,,0,,,,
1060 2,,大副,,33.4226087,131.31827,1060 2,,0,,,,
1061 1,,院内支所前,,33.4201712,131.3179549,1061 1,,0,,,,
1162 1,,六郎丸,,33.3919212,131.3939185,1162 1,,0,,,,
1163 1,,下五郎丸,,33.3896434,131.3951316,1163 1,,0,,,,
1164 1,,五郎丸,,33.3872449,131.3965347,1164 1,,0,,,,
1165 1,,木下,,33.3812914,131.3971077,1165 1,,0,,,,
1166 1,,若林,,33.3775427,131.3958676,1166 1,,0,,,,
1167 1,,東椎屋の滝入口,,33.3719823,131.3956926,1167 1,,0,,,,
1168 1,,安心院中学校前,,33.4357701,131.3575661,1168 1,,0,,,,
1168 2,,安心院中学校前,,33.4357847,131.3575795,1168 2,,0,,,,
1169 1,,妻垣入口,,33.4293691,131.3545997,1169 1,,0,,,,
1170 1,,古市,,33.427513,131.353577,1170 1,,0,,,,
1171 1,,竜王,,33.4250165,131.3539642,1171 1,,0,,,,
1172 1,,口戸,,33.4219844,131.3575653,1172 1,,0,,,,
1173 1,,仙の岩,,33.4169088,131.3496484,1173 1,,0,,,,
1174 1,,鳥越,,33.4107959,131.3461227,1174 1,,0,,,,
1175 1,,上鳥越,,33.4079866,131.3452041,1175 1,,0,,,,
1176 1,,竜王郵便局前,,33.4042673,131.3433817,1176 1,,0,,,,
1177 1,,森,,33.4015482,131.3416143,1177 1,,0,,,,
1178 1,,大村,,33.3982144,131.3410654,1178 1,,0,,,,
1179 1,,深見小学校前,,33.3936102,131.3401048,1179 1,,0,,,,
1180 1,,深見温泉前,,33.3893765,131.3406159,1180 1,,0,,,,
1181 1,,矢畑,,33.387418,131.3412658,1181 1,,0,,,,
1182 1,,広連,,33.3837769,131.3427804,1182 1,,0,,,,
1183 1,,上広連,,33.3809351,131.3434145,1183 1,,0,,,,
1184 1,,水車,,33.3783509,131.3442972,1184 1,,0,,,,
1185 1,,日吉神社前,,33.373007,131.3445698,1185 1,,0,,,,
1186 1,,鬼屋敷,,33.3695478,131.3447645,1186 1,,0,,,,
1187 1,,下畳石,,33.3647399,131.3444275,1187 1,,0,,,,
1188 1,,畳石,,33.3633338,131.3447826,1188 1,,0,,,,
1189 1,,山の口,,33.3565591,131.3391034,1189 1,,0,,,,
1190 0,,福貴野,,33.351909,131.3379664,1190 0,,0,,,,
1190 1,,福貴野,,33.351909,131.3379664,1190 1,,0,,,,
1198 1,,新宮永,,33.5940112,131.1895361,1198 1,,0,,,,
1198 2,,新宮永,,33.5940469,131.18941,1198 2,,0,,,,
1199 1,,中津北高入口,,33.590365,131.1880244,1199 1,,0,,,,
1199 2,,中津北高入口,,33.5904097,131.1878849,1199 2,,0,,,,
1200 1,,新五領,,33.585707,131.1868684,1200 1,,0,,,,
1200 2,,新五領,,33.5857115,131.186739,1200 2,,0,,,,
1201 1,,五領住宅前,,33.5817492,131.1864762,1201 1,,0,,,,
1201 2,,五領住宅前,,33.5817503,131.1863636,1201 2,,0,,,,
1202 1,,新万田,,33.5771215,131.1860291,1202 1,,0,,,,
1202 2,,新万田,,33.5771416,131.1858816,1202 2,,0,,,,
1203 1,,鶴居郵便局前,,33.5756092,131.1858596,1203 1,,0,,,,
1203 2,,鶴居郵便局前,,33.5756137,131.1857201,1203 2,,0,,,,
1204 1,,恒久橋,,33.57248,131.1860973,1204 1,,0,,,,
1204 2,,恒久橋,,33.57248,131.1859337,1204 2,,0,,,,
1205 1,,三口,,33.5681914,131.1884247,1205 1,,0,,,,
1205 2,,三口,,33.5681892,131.1882772,1205 2,,0,,,,
1206 1,,鶴市神社前,,33.5664913,131.1886674,1206 1,,0,,,,
1206 2,,鶴市神社前,,33.5664935,131.1885226,1206 2,,0,,,,
1208 1,,下佐知,,33.5546905,131.1918463,1208 1,,0,,,,
1208 2,,下佐知,,33.5547061,131.1917256,1208 2,,0,,,,
1209 1,,佐知,,33.5518617,131.1913057,1209 1,,0,,,,
1210 1,,上佐知,,33.5481404,131.190386,1210 1,,0,,,,
1210 2,,上佐知,,33.5481739,131.1902412,1210 2,,0,,,,
1211 1,,二本杉,,33.5373816,131.1818748,1211 1,,0,,,,
1211 2,,二本杉,,33.537471,131.1817434,1211 2,,0,,,,
1212 1,,土田,,33.5328491,131.1783994,1212 1,,0,,,,
1213 0,,野路,,33.5305951,131.1766978,1213 0,,0,,,,
1213 1,,野路,,33.5305951,131.1766978,1213 1,,0,,,,
1213 2,,野路,,33.530689,131.1764886,1213 2,,0,,,,
1214 1,,上野路,,33.525946,131.1749835,1214 1,,0,,,,
1214 2,,上野路,,33.5259303,131.1748145,1214 2,,0,,,,
1215 1,,鮎帰り,,33.5139843,131.1724124,1215 1,,0,,,,
1215 2,,鮎帰り,,33.513934,131.1723266,1215 2,,0,,,,
1216 1,,屋形入口,,33.5059124,131.1759702,1216 1,,0,,,,
1216 2,,屋形入口,,33.5060007,131.1759219,1216 2,,0,,,,
1217 1,,樋田,,33.5052416,131.172756,1217 1,,0,,,,
1217 2,,樋田,,33.50534,131.1727319,1217 2,,0,,,,
1218 1,,下曽木入口,,33.5035461,131.170839,1218 1,,0,,,,
1218 2,,下曽木入口,,33.5035439,131.1706968,1218 2,,0,,,,
1219 1,,青の洞門,,33.5010036,131.1714756,1219 1,,0,,,,
1219 2,,青の洞門,,33.5009812,131.1713227,1219 2,,0,,,,
1220 1,,青の洞門駐車場,,33.495478,131.1735169,1220 1,,0,,,,
1220 2,,青の洞門駐車場,,33.4954825,131.1733694,1220 2,,0,,,,
1221 1,,青,,33.4942584,131.1732647,1221 1,,0,,,,
1221 2,,青,,33.4942774,131.1731413,1221 2,,0,,,,
1222 1,,中島,,33.4913599,131.1709111,1222 1,,0,,,,
1222 2,,中島,,33.4914365,131.1709044,1222 2,,0,,,,
1223 1,,三日月神社前,,33.4893855,131.1616921,1223 1,,0,,,,
1223 2,,三日月神社前,,33.4895074,131.1616747,1223 2,,0,,,,
1224 1,,多志田農協前,,33.4821422,131.1614264,1224 1,,0,,,,
1224 2,,多志田農協前,,33.4822876,131.161354,1224 2,,0,,,,
1225 1,,多志田,,33.4810903,131.1554043,1225 1,,0,,,,
1225 2,,多志田,,33.4812357,131.1553989,1225 2,,0,,,,
1226 1,,平田,,33.4698251,131.1475237,1226 1,,0,,,,
1226 2,,平田,,33.4699034,131.1474191,1226 2,,0,,,,
1227 1,,上戸原,,33.4677892,131.1433205,1227 1,,0,,,,
1227 2,,上戸原,,33.4679078,131.143291,1227 2,,0,,,,
1228 1,,耶馬渓校前,,33.4685236,131.1348242,1228 1,,0,,,,
1228 2,,耶馬渓校前,,33.4686556,131.1348591,1228 2,,0,,,,
1229 1,,耶馬渓農協センター前,,33.4682596,131.130176,1229 1,,0,,,,
1229 2,,耶馬渓農協センター前,,33.4684475,131.1301599,1229 2,,0,,,,
1230 1,,津民入口,,33.4618767,131.1152018,1230 1,,0,,,,
1230 2,,津民入口,,33.4620803,131.115065,1230 2,,0,,,,
1231 1,,耶馬渓支所前,,33.4537431,131.1142196,1231 1,,0,,,,
1231 2,,耶馬渓支所前,,33.453695,131.1141029,1231 2,,0,,,,
1232 0,,柿坂,,33.4518701,131.115005,1232 0,,0,,,,
1232 1,,柿坂,,33.4519507,131.1151123,1232 1,,0,,,,
1232 2,,柿坂,,33.4519194,131.1149782,1232 2,,0,,,,
1233 1,,耶馬渓中学校前,,33.44729,131.1182034,1233 1,,0,,,,
1233 2,,耶馬渓中学校前,,33.4472766,131.1180532,1233 2,,0,,,,
1235 1,,津留,,33.4428991,131.1072783,1235 1,,0,,,,
1235 2,,津留,,33.4430177,131.107281,1235 2,,0,,,,
1236 1,,奥の鶴入口,,33.4375793,131.104677,1236 1,,0,,,,
1236 2,,奥の鶴入口,,33.4375155,131.1045711,1236 2,,0,,,,
1237 1,,随雲寺,,33.4346785,131.1027903,1237 1,,0,,,,
1237 2,,随雲寺,,33.4347792,131.1026803,1237 2,,0,,,,
1238 1,,島,,33.4284042,131.0988289,1238 1,,0,,,,
1238 2,,島,,33.4284865,131.0988423,1238 2,,0,,,,
1239 1,,下郷,,33.4285365,131.0961856,1239 1,,0,,,,
1240 1,,宮園,,33.4256209,131.0914423,1240 1,,0,,,,
1241 1,,江渕入口,,33.4260838,131.088273,1241 1,,0,,,,
1241 2,,江渕入口,,33.4262315,131.0882998,1241 2,,0,,,,
1242 1,,一ツ戸,,33.4238246,131.0759347,1242 1,,0,,,,
1243 1,,神谷入口,,33.4211026,131.0709445,1243 1,,0,,,,
1243 2,,神谷入口,,33.4211295,131.0707782,1243 2,,0,,,,
1244 1,,下中摩,,33.4176726,131.0709677,1244 1,,0,,,,
1244 2,,下中摩,,33.4177263,131.070839,1244 2,,0,,,,
1245 1,,庄屋村入口,,33.4123672,131.0708366,1245 1,,0,,,,
1245 2,,庄屋村入口,,33.4123515,131.0706971,1245 2,,0,,,,
1246 1,,御幸橋,,33.408627,131.0695599,1246 1,,0,,,,
1246 2,,御幸橋,,33.4087031,131.0695089,1246 2,,0,,,,
1247 1,,上中摩,,33.4077311,131.0652145,1247 1,,0,,,,
1247 2,,上中摩,,33.4078095,131.0652199,1247 2,,0,,,,
1248 1,,犬王丸,,33.4066379,131.0624137,1248 1,,0,,,,
1248 2,,犬王丸,,33.406714,131.0622206,1248 2,,0,,,,
1249 1,,三郷保育園前,,33.4028495,131.0579829,1249 1,,0,,,,
1249 2,,三郷保育園前,,33.4029279,131.0578998,1249 2,,0,,,,
1250 1,,宇曽,,33.4022958,131.0546439,1250 1,,0,,,,
1250 2,,宇曽,,33.4024078,131.0546278,1250 2,,0,,,,
1251 1,,上村,,33.4017322,131.0501536,1251 1,,0,,,,
1251 2,,上村,,33.4018486,131.0501321,1251 2,,0,,,,
1252 1,,朝陽橋,,33.4030722,131.0441861,1252 1,,0,,,,
1252 2,,朝陽橋,,33.4031159,131.0442786,1252 2,,0,,,,
1253 1,,山国役場前,,33.4035056,131.0420999,1253 1,,0,,,,
1254 0,,守実温泉,,33.4036956,131.0403351,1254 0,,0,,,,
1254 1,,守実温泉,,33.4036956,131.0403351,1254 1,,0,,,,
1282 1,,宮永,,33.594654,131.1856119,1282 1,,0,,,,
1283 1,,宝蔵寺入口,,33.5922948,131.1852785,1283 1,,0,,,,
1284 1,,上宮永三丁目,,33.5901578,131.1848256,1284 1,,0,,,,
1285 1,,下五領,,33.5861542,131.1841981,1285 1,,0,,,,
1285 2,,下五領,,33.5861771,131.1841176,1285 2,,0,,,,
1286 1,,五領,,33.5831978,131.1838411,1286 1,,0,,,,
1287 1,,下万田,,33.5804048,131.184046,1287 1,,0,,,,
1287 2,,下万田,,33.5804015,131.1839676,1287 2,,0,,,,
1288 1,,万田,,33.5778064,131.1843974,1288 1,,0,,,,
1288 2,,万田,,33.5777785,131.1843109,1288 2,,0,,,,
1289 1,,西湯屋,,33.5760165,131.1887363,1289 1,,0,,,,
1290 1,,湯屋,,33.5752037,131.1916408,1290 1,,0,,,,
1291 1,,下永添,,33.5740641,131.1955363,1291 1,,0,,,,
1292 1,,永添,,33.5721079,131.201621,1292 1,,0,,,,
1293 1,,上永添,,33.5708866,131.2059035,1293 1,,0,,,,
1295 1,,大貞公園入口,,33.5687767,131.2131439,1295 1,,0,,,,
1295 2,,大貞公園入口,,33.5688091,131.2130219,1295 2,,0,,,,
1296 1,,大貞,,33.5693242,131.2162276,1296 1,,0,,,,
1296 2,,大貞,,33.5693399,131.2160854,1296 2,,0,,,,
1297 1,,薦神社前,,33.5682229,131.2181595,1297 1,,0,,,,
1298 1,,山の中,,33.5648133,131.2251666,1298 1,,0,,,,
1299 1,,長久寺前,,33.5645697,131.2315656,1299 1,,0,,,,
1300 1,,三保,,33.565052,131.2360918,1300 1,,0,,,,
1301 1,,古森,,33.5636719,131.2390287,1301 1,,0,,,,
1302 1,,八日市,,33.562778,131.240341,1302 1,,0,,,,
1303 1,,黒川,,33.5611358,131.2434661,1303 1,,0,,,,
1304 0,,田中,,33.5606176,131.2455326,1304 0,,0,,,,
1304 1,,田中,,33.5606176,131.2455326,1304 1,,0,,,,
1305 1,,下池永,,33.5857022,131.2174478,1305 1,,0,,,,
1306 1,,池永,,33.5823576,131.2151314,1306 1,,0,,,,
1307 1,,上池永,,33.5805375,131.2143202,1307 1,,0,,,,
1308 1,,大貞病院前,,33.5779914,131.2150724,1308 1,,0,,,,
1309 1,,八幡町,,33.5726602,131.2154347,1309 1,,0,,,,
1309 2,,八幡町,,33.5726177,131.2153723,1309 2,,0,,,,
1310 1,,宮夫,,33.5922168,131.2132346,1310 1,,0,,,,
1310 2,,宮夫,,33.5922972,131.2133043,1310 2,,0,,,,
1311 1,,中津市民病院前,,33.5900457,131.2154865,1311 1,,0,,,,
1312 1,,錆矢堂,,33.5894709,131.2170615,1312 1,,0,,,,
1313 1,,大貞公園,,33.568162,131.2125737,1313 1,,0,,,,
1313 2,,大貞公園,,33.5682223,131.2124932,1313 2,,0,,,,
1314 1,,総合体育館入口,,33.5664758,131.2099322,1314 1,,0,,,,
1314 2,,総合体育館入口,,33.5666669,131.2098213,1314 2,,0,,,,
1315 1,,大貞公園南,,33.5653582,131.2074003,1315 1,,0,,,,
1315 2,,大貞公園南,,33.5653582,131.2074003,1315 2,,0,,,,
1316 1,,三沢住宅前,,33.5636858,131.2062034,1316 1,,0,,,,
1316 2,,三沢住宅前,,33.5637596,131.2060988,1316 2,,0,,,,
1317 1,,加来入口,,33.5623206,131.2040672,1317 1,,0,,,,
1317 2,,加来入口,,33.5623586,131.2039733,1317 2,,0,,,,
1318 1,,小倉製作所,,33.5639075,131.2026021,1318 1,,0,,,,
1319 0,,大貞車庫前,,33.5663822,131.2008779,1319 0,,0,,,,
1319 1,,大貞車庫前,,33.5664597,131.2008303,1319 1,,0,,,,
1319 2,,大貞車庫前,,33.5663828,131.2008846,1319 2,,0,,,,
1320 1,,永添住宅入口,,33.5686856,131.204714,1320 1,,0,,,,
1321 1,,加来原,,33.558237,131.202505,1321 1,,0,,,,
1322 1,,上の原,,33.5559566,131.2015788,1322 1,,0,,,,
1322 2,,上の原,,33.5547412,131.2014547,1322 2,,0,,,,
1322 3,,上の原,,33.5558733,131.2011452,1322 3,,0,,,,
1322 4,,上の原,,33.5559884,131.2012378,1322 4,,0,,,,
1323 1,,原口,,33.5514663,131.201416,1323 1,,0,,,,
1324 1,,池の端,,33.5510988,131.2013313,1324 1,,0,,,,
1324 2,,池の端,,33.5511703,131.201216,1324 2,,0,,,,
1324 3,,池の端,,33.5510988,131.2013313,1324 3,,0,,,,
1325 1,,西原口,,33.5484514,131.2033759,1325 1,,0,,,,
1326 1,,原口公民館前,,33.5469924,131.2050746,1326 1,,0,,,,
1327 1,,成恒,,33.5415944,131.2107654,1327 1,,0,,,,
1328 1,,平林,,33.536291,131.212386,1328 1,,0,,,,
1329 1,,木崎,,33.535877,131.2147146,1329 1,,0,,,,
1330 1,,下田口,,33.5344625,131.2159717,1330 1,,0,,,,
1331 1,,仮宮,,33.5297272,131.2162245,1331 1,,0,,,,
1332 1,,三田,,33.5260286,131.2149497,1332 1,,0,,,,
1333 1,,山の下,,33.5240423,131.2146888,1333 1,,0,,,,
1334 1,,八面山平和公園前,,33.5161166,131.215843,1334 1,,0,,,,
1336 1,,下上の原,,33.5575008,131.1982813,1336 1,,0,,,,
1337 1,,中津少年院入口,,33.5543144,131.2035248,1337 1,,0,,,,
1338 1,,黒水,,33.5516426,131.20817,1338 1,,0,,,,
1339 1,,弁城,,33.5498074,131.2113302,1339 1,,0,,,,
1340 1,,森山,,33.5482435,131.2145957,1340 1,,0,,,,
1341 1,,南平,,33.5458931,131.2173183,1341 1,,0,,,,
1342 1,,倉迫,,33.5436903,131.2274798,1342 1,,0,,,,
1343 1,,下秣,,33.5391016,131.2349458,1343 1,,0,,,,
1344 1,,西秣入口,,33.5349406,131.240627,1344 1,,0,,,,
1345 1,,上秣,,33.5317001,131.2463292,1345 1,,0,,,,
1345 2,,上秣,,33.5317269,131.2464311,1345 2,,0,,,,
1500 1,,山国町民広場前,,33.4046424,131.0405089,1500 1,,0,,,,
1541 1,,権現下,,33.3982032,131.0328302,1541 1,,0,,,,
1541 2,,権現下,,33.3982077,131.0327095,1541 2,,0,,,,
1566 1,,日の出町,,33.3351608,130.9386213,1566 1,,0,,,,
1566 2,,日の出町,,33.3351384,130.9387769,1566 2,,0,,,,
1567 1,,丸山町,,33.3300162,130.9379208,1567 1,,0,,,,
1568 1,,上町通り,,33.3279678,130.9374346,1568 1,,0,,,,
1569 1,,中篠,,33.3255461,130.9370051,1569 1,,0,,,,
1570 1,,大波羅前,,33.3213241,130.9372301,1570 1,,0,,,,
1571 1,,中央通り,,33.3185271,130.9365886,1571 1,,0,,,,
1571 2,,中央通り,,33.3184733,130.9364558,1571 2,,0,,,,
1572 0,,日田バスターミナル,,33.3162438,130.9380433,1572 0,,0,,,,
1572 1,,日田バスターミナル,,33.3162438,130.9380433,1572 1,,0,,,,
1752 1,,東九州短大前,,33.5889597,131.2038999,1752 1,,0,,,,
1753 1,,沖代町,,33.5865467,131.203256,1753 1,,0,,,,
1753 2,,沖代町,,33.5865132,131.203146,1753 2,,0,,,,
1754 1,,金手,,33.5846876,131.2043056,1754 1,,0,,,,
1754 2,,金手,,33.5846295,131.2041205,1754 2,,0,,,,
1755 1,,園田,,33.5792084,131.206683,1755 1,,0,,,,
1755 2,,園田,,33.5791838,131.206455,1755 2,,0,,,,
1756 1,,古城の坂,,33.5760862,131.207844,1756 1,,0,,,,
1756 2,,古城の坂,,33.5760236,131.207785,1756 2,,0,,,,
1757 1,,久上,,33.5752323,131.2104132,1757 1,,0,,,,
1757 2,,久上,,33.5751368,131.2103575,1757 2,,0,,,,
1758 1,,八幡前,,33.5715547,131.2138047,1758 1,,0,,,,
1758 2,,八幡前,,33.5715469,131.2136397,1758 2,,0,,,,
1759 1,,三光中学校入口,,33.5452639,131.2005522,1759 1,,0,,,,
1759 2,,三光中学校入口,,33.5452684,131.2003993,1759 2,,0,,,,
1760 1,,上諫山,,33.5407848,131.1984755,1760 1,,0,,,,
1760 2,,上諫山,,33.5408698,131.1983682,1760 2,,0,,,,
1761 1,,下小袋入口,,33.5359779,131.1891183,1761 1,,0,,,,
1761 2,,下小袋入口,,33.536036,131.1890217,1761 2,,0,,,,
1762 1,,真坂,,33.5343736,131.1851436,1762 1,,0,,,,
1762 2,,真坂,,33.5344496,131.1849639,1762 2,,0,,,,
1763 1,,中津児童相談所前,,33.5920052,131.1935328,1763 1,,0,,,,
1763 2,,中津児童相談所前,,33.591917,131.1934872,1763 2,,0,,,,
1764 1,,中津北高前,,33.5893621,131.1929296,1764 1,,0,,,,
1765 1,,中央町,,33.5883616,131.1928596,1765 1,,0,,,,
1765 2,,中央町,,33.5882756,131.192818,1765 2,,0,,,,
1766 1,,沖代町二丁目,,33.5870112,131.1977632,1766 1,,0,,,,
1767 1,,沖代町一丁目,,33.5857163,131.2022085,1767 1,,0,,,,
1767 2,,沖代町一丁目,,33.5856158,131.2021924,1767 2,,0,,,,
1773 1,,大坪,,33.3930253,131.0315721,1773 1,,0,,,,
1773 2,,大坪,,33.3931417,131.0314755,1773 2,,0,,,,
1774 1,,上志川,,33.3868896,131.0282762,1774 1,,0,,,,
1774 2,,上志川,,33.3869433,131.0281716,1774 2,,0,,,,
1775 1,,田の平,,33.379593,131.026184,1775 1,,0,,,,
1776 1,,大石峠,,33.3741448,131.0261209,1776 1,,0,,,,
1776 2,,大石峠,,33.3741986,131.0258795,1776 2,,0,,,,
1777 1,,小河内,,33.3679676,131.0093424,1777 1,,0,,,,
1777 2,,小河内,,33.3680572,131.0091761,1777 2,,0,,,,
1778 1,,下小河内,,33.3668564,131.0014812,1778 1,,0,,,,
1779 1,,山の口,,33.366566,130.988388,1779 1,,0,,,,
1779 2,,山の口,,33.3667161,130.988396,1779 2,,0,,,,
1780 1,,上一の瀬,,33.3669548,130.9823079,1780 1,,0,,,,
1780 2,,上一の瀬,,33.3670668,130.9823052,1780 2,,0,,,,
1781 1,,下一の瀬,,33.3663105,130.9765209,1781 1,,0,,,,
1781 2,,下一の瀬,,33.3664292,130.9765061,1781 2,,0,,,,
1821 1,,花房橋,,33.4054197,131.0356786,1821 1,,0,,,,
1821 2,,花房橋,,33.4054533,131.0355338,1821 2,,0,,,,
1823 1,,秋原入口,,33.3659194,130.9655121,1823 1,,0,,,,
1823 2,,秋原入口,,33.3659933,130.9655523,1823 2,,0,,,,
1824 1,,戸山中学校前,,33.3622437,130.9592089,1824 1,,0,,,,
1824 2,,戸山中学校前,,33.3622571,130.9590909,1824 2,,0,,,,
1825 1,,財津口,,33.3556262,130.955915,1825 1,,0,,,,
1825 2,,財津口,,33.3556676,130.9557903,1825 2,,0,,,,
1826 1,,三和団地,,33.3482677,130.9436616,1826 1,,0,,,,
1826 2,,三和団地,,33.348326,130.9435543,1826 2,,0,,,,
1827 1,,新天神町,,33.3399036,130.9417137,1827 1,,0,,,,
1827 2,,新天神町,,33.339917,130.9415903,1827 2,,0,,,,
1846 1,,北原入口,,33.5777766,131.2379145,1846 1,,0,,,,
1846 2,,北原入口,,33.5778772,131.2380325,1846 2,,0,,,,
1849 1,,乙女郵便局前,,33.5634971,131.3242478,1849 1,,0,,,,
1851 1,,渋見,,33.5116132,131.1768662,1851 1,,0,,,,
1851 2,,渋見,,33.5115864,131.1767214,1851 2,,0,,,,
1889 1,,新栄住宅前,,33.5704907,131.4462263,1889 1,,0,,,,
1889 2,,新栄住宅前,,33.5705136,131.4463101,1889 2,,0,,,,
1893 1,,柳ヶ浦駅前,,33.5654613,131.3625125,1893 1,,0,,,,
1893 2,,柳ヶ浦駅前,,33.5655853,131.3624414,1893 2,,0,,,,
1895 1,,財津南,,33.3518767,130.9498159,1895 1,,0,,,,
1895 2,,財津南,,33.3519775,130.949773,1895 2,,0,,,,
1905 1,,上高家住宅前,,33.5653661,131.3176767,1905 1,,0,,,,
1907 1,,柳ヶ浦高校前,,33.5566904,131.3581637,1907 1,,0,,,,
1907 2,,柳ヶ浦高校前,,33.5567665,131.3580288,1907 2,,0,,,,
1908 1,,木原入口,,33.5661935,131.222187,1908 1,,0,,,,
1926 1,,前田,,33.5276683,131.3687284,1926 1,,0,,,,
1926 2,,前田,,33.52776,131.3686681,1926 2,,0,,,,
1927 0,,下浜中,,33.6844752,131.5987305,1927 0,,0,,,,
1927 1,,下浜中,,33.6844752,131.5985803,1927 1,,0,,,,
1928 1,,国見郵便局前,,33.6816571,131.5972973,1928 1,,0,,,,
1928 2,,国見郵便局前,,33.6817486,131.5972544,1928 2,,0,,,,
1933 1,,済生会,,33.3453208,130.9416307,1933 1,,0,,,,
1942 1,,小楠,,33.5956418,131.2051871,1942 1,,0,,,,
1942 2,,小楠,,33.5955748,131.205171,1942 2,,0,,,,
195 1,,保健福祉センター,,33.4391604,131.354704,195 1,,0,,,,
195 2,,保健福祉センター,,33.4390395,131.3546369,195 2,,0,,,,
1954 1,,駅前公民館前,,33.5642841,131.3224249,1954 1,,0,,,,
196 1,,安心院農協前,,33.4382449,131.3570768,196 1,,0,,,,
196 2,,安心院農協前,,33.4381789,131.3570406,196 2,,0,,,,
197 1,,中荘,,33.4349398,131.3670705,197 1,,0,,,,
198 1,,上荘,,33.4326617,131.3711918,198 1,,0,,,,
1981 1,,イオン三光,,33.5572195,131.1919243,1981 1,,0,,,,
1981 2,,イオン三光,,33.5572307,131.1918036,1981 2,,0,,,,
1983 1,,中津検診センター,,33.5624774,131.1974102,1983 1,,0,,,,
1983 2,,中津検診センター,,33.5624707,131.1972385,1983 2,,0,,,,
1984 1,,イオン三光東口,,33.5592708,131.1948135,1984 1,,0,,,,
1984 2,,イオン三光東口,,33.559187,131.1946512,1984 2,,0,,,,
199 1,,戸方,,33.4237381,131.376503,199 1,,0,,,,
1992 1,,安岐町役場前,,33.4663265,131.6922016,1992 1,,0,,,,
1992 2,,安岐町役場前,,33.4663355,131.6920836,1992 2,,0,,,,
200 1,,岡,,33.420191,131.3798204,200 1,,0,,,,
201 1,,千福,,33.413574,131.381866,201 1,,0,,,,
202 1,,楢本,,33.4104071,131.3846169,202 1,,0,,,,
2023 1,,イオン三光東,,33.5575226,131.1944875,2023 1,,0,,,,
2029 1,,上乙女桜公園前,,33.5583694,131.3371585,2029 1,,0,,,,
203 1,,尾立,,33.404007,131.386936,203 1,,0,,,,
2032 0,,大分空港,,33.4763208,131.7323715,2032 0,,0,,,,
2032 1,,大分空港,,33.4763074,131.7324251,2032 1,,0,,,,
204 1,,上尾立,,33.4011839,131.3882277,204 1,,0,,,,
2042 1,,鶴,,33.3670675,131.3971189,2042 1,,0,,,,
2043 1,,丸田,,33.3631194,131.3958948,2043 1,,0,,,,
2044 1,,立箱,,33.3542476,131.3984416,2044 1,,0,,,,
2045 0,,仙人田茶屋,,33.3489546,131.3994171,2045 0,,0,,,,
2045 1,,仙人田茶屋,,33.3489546,131.3994171,2045 1,,0,,,,
205 1,,津房保育園前,,33.3965866,131.3914866,205 1,,0,,,,
206 1,,津房農協前,,33.3932002,131.3933317,206 1,,0,,,,
2071 1,,道の駅いんない,,33.4243217,131.3203453,2071 1,,0,,,,
2071 2,,道の駅いんない,,33.4243028,131.3203399,2071 2,,0,,,,
2085 1,,豊後高田市役所,,33.5566247,131.4454557,2085 1,,0,,,,
2085 2,,豊後高田市役所,,33.5564973,131.4454973,2085 2,,0,,,,
2086 1,,美和工業団地入口,,33.5539151,131.4613397,2086 1,,0,,,,
2086 2,,美和工業団地入口,,33.5538223,131.4613478,2086 2,,0,,,,
2087 1,,北部中核工業団地,,33.5517077,131.4830211,2087 1,,0,,,,
2087 2,,北部中核工業団地,,33.5516586,131.4828655,2087 2,,0,,,,
2088 1,,TOTO前,,33.5833926,131.2308755,2088 1,,0,,,,
2088 2,,TOTO前,,33.5833032,131.2308192,2088 2,,0,,,,
2089 1,,豊後高田バスターミナル,,33.5572751,131.4380781,2089 1,,0,,,,
2089 2,,豊後高田バスターミナル,,33.5572617,131.4380432,2089 2,,0,,,,
2093 1,,イオンタウン豊後高田店,,33.556396,131.430466,2093 1,,0,,,,
2107 0,,さ蕨前,,33.5614933,131.2648051,2107 0,,0,,,,
2107 1,,さ蕨前,,33.5615246,131.2646549,2107 1,,0,,,,
2108 0,,上植野,,33.5640517,131.2646326,2108 0,,0,,,,
2108 1,,上植野,,33.564083,131.2645495,2108 1,,0,,,,
2109 1,,今津コミュニティセンター前,,33.5685524,131.2652148,2109 1,,0,,,,
2110 1,,ゆめタウン前,,33.6018861,131.1938056,2110 1,,0,,,,
2110 2,,ゆめタウン前,,33.6018861,131.1938056,2110 2,,0,,,,
2113 0,,金色橋,,33.5201037,131.208542,2113 0,,0,,,,
2113 1,,金色橋,,33.5201976,131.208542,2113 1,,0,,,,
2114 0,,金色妙見宮,,33.5178265,131.2034772,2114 0,,0,,,,
2114 1,,金色妙見宮,,33.51786,131.2034088,2114 1,,0,,,,
2115 1,,金色温泉,,33.5161042,131.2016566,2115 1,,0,,,,
2116 0,,八面山荘,,33.5137614,131.2146277,2116 0,,0,,,,
2116 1,,八面山荘,,33.5137614,131.2146277,2116 1,,0,,,,
2118 1,,耶馬渓,,33.4457019,131.1164557,2118 1,,0,,,,
2120 1,,豊後高田市役所,,33.5565018,131.445527,2120 1,,0,,,,
2121 1,,粟嶋公園前,,33.6453163,131.4878022,2121 1,,0,,,,
2121 2,,粟嶋公園前,,33.645189,131.4878371,2121 2,,0,,,,
2122 1,,今津駅入口,,33.5736768,131.2660928,2122 1,,0,,,,
2122 2,,今津駅入口,,33.5737595,131.2660123,2122 2,,0,,,,
2124 0,,アメニティタウンかみまくさ,,33.5304181,131.2425552,2124 0,,0,,,,
2124 1,,アメニティタウンかみまくさ,,33.530426,131.2425847,2124 1,,0,,,,
2125 0,,安心院支所,,33.4389866,131.3540346,2125 0,,0,,,,
2125 1,,安心院支所,,33.4389961,131.3540051,2125 1,,0,,,,
2129 1,,フレスポ中津北,,33.5976234,131.2263209,2129 1,,0,,,,
434 1,,大田支所前,,33.4951778,131.557301,434 1,,0,,,,
434 2,,大田支所前,,33.4951599,131.5573574,434 2,,0,,,,
639 0,,伊美,,33.6832643,131.5982452,639 0,,0,,,,
639 2,,伊美,,33.6832498,131.5982384,639 2,,0,,,,
640 1,,国見中学校前,,33.6805666,131.5956866,640 1,,0,,,,
641 1,,国見支所前,,33.6786949,131.5934608,641 1,,0,,,,
642 1,,国見福祉ｾﾝﾀｰ前,,33.677212,131.592239,642 1,,0,,,,
643 1,,双国高校前,,33.675962,131.59118,643 1,,0,,,,
643 2,,双国高校前,,33.6760312,131.59107,643 2,,0,,,,
645 1,,東櫛の海,,33.6718498,131.5789263,645 1,,0,,,,
645 2,,東櫛の海,,33.6719458,131.5789263,645 2,,0,,,,
646 1,,櫛の海,,33.6721068,131.5757188,646 1,,0,,,,
646 2,,櫛の海,,33.6721939,131.5757161,646 2,,0,,,,
647 1,,鬼籠,,33.6719957,131.5690166,647 1,,0,,,,
648 1,,竹田津大橋,,33.6720454,131.563891,648 1,,0,,,,
648 2,,竹田津大橋,,33.6721095,131.5640519,648 2,,0,,,,
649 0,,竹田津漁協前,,33.675887,131.5644278,649 0,,0,,,,
649 1,,竹田津漁協前,,33.6758691,131.5642776,649 1,,0,,,,
650 1,,竹田津港,,33.6787041,131.565052,650 1,,0,,,,
651 1,,伊美港,,33.687336,131.600082,651 1,,0,,,,
681 1,,高田本町,,33.555951,131.4423304,681 1,,0,,,,
681 2,,高田本町,,33.5558415,131.4423988,681 2,,0,,,,
682 1,,市立図書館前,,33.5578205,131.444132,682 1,,0,,,,
682 2,,市立図書館前,,33.557835,131.4442366,682 2,,0,,,,
683 1,,桂橋,,33.5590562,131.4437359,683 1,,0,,,,
683 2,,桂橋,,33.5590791,131.4438271,683 2,,0,,,,
684 1,,玉津商店街,,33.5607455,131.4443475,684 1,,0,,,,
684 2,,玉津商店街,,33.5607204,131.44443,684 2,,0,,,,
685 1,,新屋敷,,33.5633356,131.4449343,685 1,,0,,,,
686 1,,高田高校前,,33.567022,131.4459581,686 1,,0,,,,
686 2,,高田高校前,,33.567008,131.4460433,686 2,,0,,,,
687 1,,中伏,,33.572673,131.4471081,687 1,,0,,,,
688 1,,呉崎,,33.5784995,131.447967,688 1,,0,,,,
688 2,,呉崎,,33.5784771,131.4480649,688 2,,0,,,,
689 1,,新開,,33.5835161,131.4493603,689 1,,0,,,,
689 2,,新開,,33.5834837,131.4494595,689 2,,0,,,,
690 1,,入川,,33.5881727,131.4507357,690 1,,0,,,,
690 2,,入川,,33.5881359,131.4508228,690 2,,0,,,,
691 1,,猫石,,33.5932582,131.4550483,691 1,,0,,,,
691 2,,猫石,,33.5931867,131.455106,691 2,,0,,,,
692 1,,赤坂,,33.5963852,131.4594239,692 1,,0,,,,
693 1,,西金屋,,33.5992955,131.4633452,693 1,,0,,,,
693 2,,西金屋,,33.5992162,131.463423,693 2,,0,,,,
694 1,,金屋,,33.6010393,131.4655962,694 1,,0,,,,
694 2,,金屋,,33.6009622,131.4656686,694 2,,0,,,,
695 1,,東金屋,,33.6028804,131.4679589,695 1,,0,,,,
695 2,,東金屋,,33.6028044,131.4680608,695 2,,0,,,,
696 1,,大村,,33.6059887,131.471927,696 1,,0,,,,
696 2,,大村,,33.6059228,131.4719941,696 2,,0,,,,
697 1,,浜内新田,,33.6080397,131.4738422,697 1,,0,,,,
698 1,,真玉支所前,,33.6091978,131.4746359,698 1,,0,,,,
698 2,,真玉支所前,,33.6091107,131.4748022,698 2,,0,,,,
699 1,,真玉,,33.6104206,131.4757777,699 1,,0,,,,
699 2,,真玉,,33.6103592,131.4758595,699 2,,0,,,,
700 1,,西泊,,33.6179881,131.476387,700 1,,0,,,,
700 2,,西泊,,33.6181065,131.4764567,700 2,,0,,,,
701 1,,泊,,33.6200854,131.4741161,701 1,,0,,,,
701 2,,泊,,33.6201211,131.4743092,701 2,,0,,,,
702 1,,尾鷲,,33.6253327,131.4754499,702 1,,0,,,,
703 1,,真寿苑,,33.6313332,131.4770026,703 1,,0,,,,
703 2,,真寿苑,,33.6312148,131.4771716,703 2,,0,,,,
704 1,,臼野,,33.6327233,131.4819829,704 1,,0,,,,
704 2,,臼野,,33.6325982,131.482117,704 2,,0,,,,
705 1,,東浜,,33.6363296,131.4845146,705 1,,0,,,,
705 2,,東浜,,33.6362961,131.4846273,705 2,,0,,,,
706 1,,小林,,33.642935,131.4865449,706 1,,0,,,,
706 2,,小林,,33.6428937,131.4866536,706 2,,0,,,,
707 1,,西堅来,,33.6453674,131.4974976,707 1,,0,,,,
707 2,,西堅来,,33.6452602,131.4975593,707 2,,0,,,,
708 1,,小池,,33.6478957,131.4995935,708 1,,0,,,,
708 2,,小池,,33.6477841,131.499733,708 2,,0,,,,
709 1,,羽根,,33.6545261,131.5075243,709 1,,0,,,,
709 2,,羽根,,33.654448,131.5076316,709 2,,0,,,,
710 1,,松津,,33.6609237,131.5055169,710 1,,0,,,,
710 2,,松津,,33.6608969,131.5056617,710 2,,0,,,,
711 1,,香々地少年自然の家入口,,33.6639177,131.5157719,711 1,,0,,,,
711 2,,香々地少年自然の家入口,,33.6637971,131.5158336,711 2,,0,,,,
712 1,,西浜,,33.6656046,131.51924,712 1,,0,,,,
712 2,,西浜,,33.6655108,131.5193071,712 2,,0,,,,
713 1,,松原,,33.6665158,131.5210843,713 1,,0,,,,
713 2,,松原,,33.6664309,131.5211352,713 2,,0,,,,
714 1,,新竹田橋,,33.6678599,131.5238451,714 1,,0,,,,
714 2,,新竹田橋,,33.6677773,131.5238827,714 2,,0,,,,
715 1,,香々地,,33.6685868,131.5253256,715 1,,0,,,,
715 2,,香々地,,33.6685109,131.5253632,715 2,,0,,,,
716 1,,長崎鼻キャンプ場入口,,33.6688991,131.5281677,716 1,,0,,,,
717 1,,元兼,,33.6668215,131.5318195,717 1,,0,,,,
718 1,,堂園,,33.6639436,131.5358551,718 1,,0,,,,
719 1,,近広,,33.6623044,131.5384816,719 1,,0,,,,
719 2,,近広,,33.662195,131.5384521,719 2,,0,,,,
724 1,,西村,,33.6636012,131.5567031,724 1,,0,,,,
725 1,,竹田津,,33.6708476,131.5618653,725 1,,0,,,,
725 2,,竹田津,,33.6709726,131.5618304,725 2,,0,,,,
726 0,,宇佐駅前,,33.5318797,131.4115825,726 0,,0,,,,
726 1,,宇佐駅前,,33.5318797,131.4115825,726 1,,0,,,,
726 2,,宇佐駅前,,33.5318786,131.4115963,726 2,,0,,,,
76 1,,岩崎,,33.5345444,131.4089751,76 1,,0,,,,
76 2,,岩崎,,33.534645,131.408951,76 2,,0,,,,
76 3,,岩崎,,33.534541,131.4089443,76 3,,0,,,,
76 4,,岩崎,,33.5346221,131.4089168,76 4,,0,,,,
77 1,,西木,,33.5370775,131.4186918,77 1,,0,,,,
77 2,,西木,,33.5371312,131.4186221,77 2,,0,,,,
78 1,,横田,,33.5413236,131.4218867,78 1,,0,,,,
78 2,,横田,,33.5414074,131.4217901,78 2,,0,,,,
79 1,,犬田,,33.547681,131.427826,79 1,,0,,,,
79 2,,犬田,,33.5477335,131.4277509,79 2,,0,,,,
80 1,,新地,,33.5529198,131.4349602,80 1,,0,,,,
80 2,,新地,,33.5529734,131.4348556,80 2,,0,,,,
81 0,,豊後高田,,33.5572736,131.4379695,81 0,,0,,,,
81 1,,豊後高田,,33.5572904,131.4380071,81 1,,0,,,,
81 2,,豊後高田,,33.5572759,131.4379951,81 2,,0,,,,
81 3,,豊後高田,,33.5572905,131.4379816,81 3,,0,,,,
823 1,,佐野,,33.5340777,131.4702401,823 1,,0,,,,
823 2,,佐野,,33.5339913,131.4701999,823 2,,0,,,,
829 1,,ふき,,33.5329445,131.5010626,829 1,,0,,,,
829 2,,ふき,,33.532921,131.5008373,829 2,,0,,,,
833 1,,田染中村,,33.5149961,131.5165921,833 1,,0,,,,
833 2,,田染中村,,33.514794,131.5165082,833 2,,0,,,,
875 1,,日足入口,,33.5300577,131.3878439,875 1,,0,,,,
875 2,,日足入口,,33.5301538,131.3877996,875 2,,0,,,,
876 1,,伏田,,33.528969,131.3842712,876 1,,0,,,,
876 2,,伏田,,33.5290875,131.384243,876 2,,0,,,,
877 1,,宇佐高校前,,33.5284159,131.3782435,877 1,,0,,,,
877 2,,宇佐高校前,,33.5285109,131.3782207,877 2,,0,,,,
878 1,,宇佐八幡,,33.5282022,131.372909,878 1,,0,,,,
878 2,,宇佐八幡,,33.528333,131.372909,878 2,,0,,,,
879 1,,和気,,33.5346218,131.3978614,879 1,,0,,,,
879 2,,和気,,33.5347604,131.397797,879 2,,0,,,,
880 1,,宇佐中学校前,,33.5324753,131.3926805,880 1,,0,,,,
880 2,,宇佐中学校前,,33.5326229,131.3926322,880 2,,0,,,,
881 1,,宇佐上町,,33.526895,131.3671952,881 1,,0,,,,
881 2,,宇佐上町,,33.5269856,131.3671416,881 2,,0,,,,
882 1,,風土記の丘入口,,33.5290904,131.3574392,882 1,,0,,,,
882 2,,風土記の丘入口,,33.5291105,131.3575425,882 2,,0,,,,
883 1,,法鏡寺,,33.5254003,131.3430452,883 1,,0,,,,
883 2,,法鏡寺,,33.5254886,131.3431029,883 2,,0,,,,
884 1,,駅川中学校前,,33.5262547,131.3402308,884 1,,0,,,,
884 2,,駅川中学校前,,33.5263117,131.3402724,884 2,,0,,,,
885 1,,閤,,33.5269573,131.3373929,885 1,,0,,,,
885 2,,閤,,33.5270389,131.3374586,885 2,,0,,,,
886 1,,常徳入口,,33.5284316,131.3329661,886 1,,0,,,,
886 2,,常徳入口,,33.528511,131.333001,886 2,,0,,,,
887 1,,東新町,,33.5297375,131.3297696,887 1,,0,,,,
887 2,,東新町,,33.5297968,131.3298179,887 2,,0,,,,
888 0,,四日市,,33.5309879,131.3284306,888 0,,0,,,,
888 1,,四日市,,33.5309879,131.3284306,888 1,,0,,,,
888 2,,四日市,,33.531046,131.3286023,888 2,,0,,,,
889 1,,四日市支所前,,33.5329585,131.3281097,889 1,,0,,,,
889 2,,四日市支所前,,33.532916,131.3282143,889 2,,0,,,,
890 1,,勤労青少年ホーム前,,33.5348113,131.3245592,890 1,,0,,,,
890 2,,勤労青少年ホーム前,,33.5349186,131.3245753,890 2,,0,,,,
891 1,,千源寺,,33.5349923,131.3139687,891 1,,0,,,,
891 2,,千源寺,,33.5351913,131.3140304,891 2,,0,,,,
892 1,,糸口山,,33.5359509,131.311339,892 1,,0,,,,
892 2,,糸口山,,33.5360537,131.3113819,892 2,,0,,,,
893 1,,山下入口,,33.5367844,131.3020778,893 1,,0,,,,
893 2,,山下入口,,33.5368761,131.3021556,893 2,,0,,,,
894 1,,猿渡,,33.5399449,131.2929325,894 1,,0,,,,
894 2,,猿渡,,33.5401327,131.2930854,894 2,,0,,,,
895 1,,笠松,,33.5404936,131.2915683,895 1,,0,,,,
895 2,,笠松,,33.5406948,131.2917158,895 2,,0,,,,
896 0,,南敷田,,33.5470968,131.2808216,896 0,,0,,,,
896 1,,南敷田,,33.5470513,131.2808363,896 1,,0,,,,
896 2,,南敷田,,33.5472346,131.2810026,896 2,,0,,,,
897 1,,樋田入口,,33.5485948,131.2779576,897 1,,0,,,,
897 2,,樋田入口,,33.5487602,131.2781346,897 2,,0,,,,
898 1,,飛永,,33.5536905,131.2700551,898 1,,0,,,,
898 2,,飛永,,33.5538023,131.2701463,898 2,,0,,,,
899 1,,植野,,33.5600528,131.2631599,899 1,,0,,,,
899 2,,植野,,33.5601176,131.2632565,899 2,,0,,,,
900 1,,犬丸工業団地前,,33.5663224,131.2567024,900 1,,0,,,,
900 2,,犬丸工業団地前,,33.5664163,131.2568472,900 2,,0,,,,
901 1,,犬丸,,33.5688212,131.2524168,901 1,,0,,,,
901 2,,犬丸,,33.5689262,131.2525214,901 2,,0,,,,
902 1,,三保入口,,33.5717649,131.2471403,902 1,,0,,,,
902 2,,三保入口,,33.5718498,131.2472181,902 2,,0,,,,
903 1,,野路山,,33.574573,131.2421487,903 1,,0,,,,
903 2,,野路山,,33.5746959,131.2422748,903 2,,0,,,,
904 1,,八光産業前,,33.5799218,131.2351653,904 1,,0,,,,
904 2,,八光産業前,,33.5800425,131.235294,904 2,,0,,,,
905 1,,TOTO前,,33.583301,131.230784,905 1,,0,,,,
905 2,,TOTO前,,33.5833993,131.2308484,905 2,,0,,,,
906 1,,中津東高校入口,,33.5847814,131.2272264,906 1,,0,,,,
906 2,,中津東高校入口,,33.5848864,131.2273122,906 2,,0,,,,
907 1,,全徳入口,,33.5855532,131.2245427,907 1,,0,,,,
907 2,,全徳入口,,33.585685,131.2246258,907 2,,0,,,,
908 1,,中津放送局入口,,33.5880101,131.2160614,908 1,,0,,,,
908 2,,中津放送局入口,,33.5878961,131.2160292,908 2,,0,,,,
908 3,,中津放送局入口,,33.5878961,131.2160292,908 3,,0,,,,
909 1,,中津市民病院入口,,33.5884235,131.2147059,909 1,,0,,,,
909 2,,中津市民病院入口,,33.5882448,131.2146415,909 2,,0,,,,
910 1,,一ツ松口,,33.5904637,131.2070756,910 1,,0,,,,
910 2,,一ツ松口,,33.5903877,131.206979,910 2,,0,,,,
911 1,,東九州短大入口,,33.5908375,131.2058391,911 1,,0,,,,
911 2,,東九州短大入口,,33.590699,131.2057908,911 2,,0,,,,
912 1,,中津総合庁舎入口,,33.5937375,131.1959964,912 1,,0,,,,
912 2,,中津総合庁舎入口,,33.5935878,131.1958891,912 2,,0,,,,
913 1,,中津警察署前,,33.594656,131.1929005,913 1,,0,,,,
913 2,,中津警察署前,,33.5944505,131.1927905,913 2,,0,,,,
913 3,,中津警察署前,,33.5944505,131.1927905,913 3,,0,,,,
914 1,,中央町１丁目,,33.5951814,131.1910364,914 1,,0,,,,
914 2,,中央町１丁目,,33.5950138,131.190964,914 2,,0,,,,
915 1,,豊田町二丁目,,33.5976077,131.1861875,915 1,,0,,,,
915 2,,豊田町二丁目,,33.5976273,131.1860246,915 2,,0,,,,
916 1,,中津市役所前,,33.5987043,131.1866877,916 1,,0,,,,
916 2,,中津市役所前,,33.5987758,131.1864463,916 2,,0,,,,
917 0,,中津駅前,,33.5987215,131.1909668,917 0,,0,,,,
917 1,,中津駅前,,33.5987215,131.1909668,917 1,,0,,,,
917 2,,中津駅前,,33.5987215,131.1909668,917 2,,0,,,,
918 1,,パナソニック前,,33.5320275,131.3559289,918 1,,0,,,,
918 2,,パナソニック前,,33.5321102,131.3559745,918 2,,0,,,,
919 1,,宇佐市役所,,33.5318639,131.3490414,919 1,,0,,,,
919 2,,宇佐市役所前,,33.5326132,131.3492903,919 2,,0,,,,
920 1,,下法鏡寺,,33.5293895,131.3475795,920 1,,0,,,,
920 2,,下法鏡寺,,33.5294007,131.3473381,920 2,,0,,,,
922 1,,新町,,33.558366,131.4361332,922 1,,0,,,,
922 2,,新町,,33.5583593,131.4362794,922 2,,0,,,,
923 1,,西新町,,33.5586744,131.4294617,923 1,,0,,,,
923 2,,西新町,,33.5587515,131.4293839,923 2,,0,,,,
924 1,,水崎,,33.5558022,131.4187103,924 1,,0,,,,
924 2,,水崎,,33.555876,131.418662,924 2,,0,,,,
925 1,,浮殿橋,,33.5558264,131.4160501,925 1,,0,,,,
925 2,,浮殿橋,,33.5559136,131.4160809,925 2,,0,,,,
926 1,,和間局前,,33.5587746,131.4092596,926 1,,0,,,,
926 2,,和間局前,,33.5588607,131.4093401,926 2,,0,,,,
927 1,,松崎,,33.5602269,131.3991296,927 1,,0,,,,
927 2,,松崎,,33.5603085,131.3991839,927 2,,0,,,,
928 1,,佐々礼,,33.5620927,131.3929414,928 1,,0,,,,
928 2,,佐々礼,,33.5621832,131.3929756,928 2,,0,,,,
929 1,,佐々礼市営住宅前,,33.5633342,131.3894328,929 1,,0,,,,
929 2,,佐々礼市営住宅前,,33.563418,131.3894844,929 2,,0,,,,
930 1,,長洲駅前,,33.5660545,131.3830261,930 1,,0,,,,
930 2,,長洲駅前,,33.5661607,131.3830523,930 2,,0,,,,
931 1,,長洲中学校前,,33.5663755,131.3802706,931 1,,0,,,,
931 2,,長洲中学校前,,33.5665029,131.3802988,931 2,,0,,,,
932 1,,長洲支所前,,33.5691922,131.3755575,932 1,,0,,,,
932 2,,長洲支所前,,33.569324,131.3755776,932 2,,0,,,,
933 1,,長洲小松橋,,33.5681527,131.371353,933 1,,0,,,,
933 2,,長洲小松橋,,33.5682365,131.3713034,933 2,,0,,,,
934 1,,柳ヶ浦小松橋,,33.5669795,131.3678422,934 1,,0,,,,
938 1,,下川部,,33.548084,131.3565042,938 1,,0,,,,
938 2,,下川部,,33.5481868,131.3562628,938 2,,0,,,,
939 1,,川部,,33.5442256,131.3561732,939 1,,0,,,,
939 2,,川部,,33.5442703,131.3560793,939 2,,0,,,,
940 1,,畑田,,33.5385418,131.3518895,940 1,,0,,,,
940 2,,畑田,,33.5386179,131.3518144,940 2,,0,,,,
941 1,,上田,,33.5318037,131.3478299,941 1,,0,,,,
941 2,,上田,,33.5318205,131.3475979,941 2,,0,,,,
942 1,,沖の巣,,33.5668524,131.3659179,942 1,,0,,,,
943 1,,柳ヶ浦,,33.5666979,131.3629339,943 1,,0,,,,
958 1,,鍋島,,33.5767223,131.2690461,958 1,,0,,,,
959 1,,西鍋島,,33.5809912,131.2690319,959 1,,0,,,,
959 2,,西鍋島,,33.5807901,131.2688656,959 2,,0,,,,
960 1,,今津,,33.5821468,131.2619271,960 1,,0,,,,
960 2,,今津,,33.5819502,131.2619003,960 2,,0,,,,
961 1,,諸田,,33.5834265,131.2555858,961 1,,0,,,,
961 2,,諸田,,33.5832209,131.2555161,961 2,,0,,,,
962 1,,小路,,33.58377,131.2538752,962 1,,0,,,,
962 2,,小路,,33.5835376,131.2538216,962 2,,0,,,,
963 1,,唯専寺前,,33.5844557,131.2507763,963 1,,0,,,,
963 2,,唯専寺前,,33.5841876,131.2506636,963 2,,0,,,,
964 1,,和田小学校前,,33.5872548,131.2456522,964 1,,0,,,,
964 2,,和田小学校前,,33.5870626,131.2453786,964 2,,0,,,,
965 1,,東中津駅入口,,33.5889329,131.2422208,965 1,,0,,,,
965 2,,東中津駅入口,,33.5890893,131.2424515,965 2,,0,,,,
966 1,,田尻,,33.5925347,131.2373241,966 1,,0,,,,
966 2,,田尻,,33.592356,131.2371793,966 2,,0,,,,
967 1,,東新田入口,,33.5982537,131.2260375,967 1,,0,,,,
968 1,,東新田,,33.5947688,131.2250248,968 1,,0,,,,
969 1,,大新田,,33.5947921,131.2232475,969 1,,0,,,,
970 1,,工科短大前,,33.5955778,131.2180075,970 1,,0,,,,
971 1,,東浜,,33.597655,131.2134499,971 1,,0,,,,
972 1,,一ツ松,,33.5948151,131.2074074,972 1,,0,,,,
972 2,,一ツ松,,33.5948151,131.2074074,972 2,,0,,,,
972 3,,一ツ松,,33.5951379,131.2082684,972 3,,0,,,,
973 1,,牛神,,33.5964177,131.2026413,973 1,,0,,,,
973 2,,牛神,,33.5963607,131.202597,973 2,,0,,,,
974 1,,中殿,,33.5980676,131.1975976,974 1,,0,,,,
974 2,,中殿,,33.5979581,131.1975305,974 2,,0,,,,
975 1,,東本町,,33.6002111,131.1912124,975 1,,0,,,,
975 2,,東本町,,33.6000927,131.1911433,975 2,,0,,,,
975 3,,東本町,,33.6002122,131.1912104,975 3,,0,,,,
975 4,,東本町,,33.6000927,131.1911433,975 4,,0,,,,
976 1,,福沢通り,,33.6012884,131.187201,976 1,,0,,,,
976 2,,福沢通り,,33.601246,131.1873834,976 2,,0,,,,
977 1,,宇佐産業科学高校入口,,33.5360404,131.3229676,977 1,,0,,,,
978 1,,吉松入口,,33.5427548,131.3210426,978 1,,0,,,,
979 1,,糸口中村,,33.5468538,131.3188239,979 1,,0,,,,
980 1,,高村,,33.5508902,131.3152361,980 1,,0,,,,
981 1,,糸口小学校前,,33.5534611,131.3070074,981 1,,0,,,,
982 1,,糸口保育園前,,33.5561834,131.3068203,982 1,,0,,,,
983 1,,国宝善光寺,,33.5576801,131.3068567,983 1,,0,,,,
984 1,,高家原口,,33.5609799,131.3069137,984 1,,0,,,,
985 1,,中島神社前,,33.5642472,131.3121552,985 1,,0,,,,
986 1,,上高家,,33.565359,131.3138316,986 1,,0,,,,
987 0,,善光寺駅前,,33.5662325,131.3229644,987 0,,0,,,,
987 1,,善光寺駅前,,33.5662325,131.3229644,987 1,,0,,,,
989 1,,安心院高校前,,33.4379091,131.351919,989 1,,0,,,,
989 2,,安心院高校前,,33.4379583,131.3518332,989 2,,0,,,,
990 1,,折敷田,,33.435263,131.3503649,990 1,,0,,,,
990 2,,折敷田,,33.4353189,131.3502857,990 2,,0,,,,
991 1,,大佛,,33.4322151,131.345937,991 1,,0,,,,
991 2,,大佛,,33.4323046,131.3458109,991 2,,0,,,,
992 1,,辻,,33.4273847,131.3396807,992 1,,0,,,,
992 2,,辻,,33.427434,131.3396405,992 2,,0,,,,
993 1,,上田の口,,33.4225477,131.3347824,993 1,,0,,,,
993 2,,上田の口,,33.4225964,131.3347093,993 2,,0,,,,
994 1,,下田の口,,33.4212765,131.3321741,994 1,,0,,,,
994 2,,下田の口,,33.4213789,131.3321788,994 2,,0,,,,
995 1,,野末,,33.4246529,131.3240029,995 1,,0,,,,
995 2,,野末,,33.4247682,131.3240016,995 2,,0,,,,
996 1,,上副,,33.4285423,131.3223809,996 1,,0,,,,
996 2,,上副,,33.4284841,131.3225418,996 2,,0,,,,
997 1,,副,,33.4307228,131.3234062,997 1,,0,,,,
997 2,,副,,33.430725,131.3236074,997 2,,0,,,,
998 1,,下副,,33.4336288,131.3253253,998 1,,0,,,,
998 2,,下副,,33.4335684,131.3254433,998 2,,0,,,,
999 1,,野尻,,33.4362958,131.3271854,999 1,,0,,,,
999 2,,野尻,,33.4362555,131.3273651,999 2,,0,,,,
