stop_id,stop_code,stop_name,stop_desc,stop_lat,stop_lon,zone_id,stop_url,location_type,parent_station,stop_timezone,wheelchair_boarding,platform_code
1000 1,,日田バスターミナル,,33.3162167,130.9379895,1000 1,,0,,,,
1000 2,,日田バスターミナル,,33.3161786,130.9379359,1000 2,,0,,,,
1000 3,,日田バスターミナル,,33.3161842,130.9379869,1000 3,,0,,,,
1001 1,,元町,,33.31501,130.9383336,1001 1,,0,,,,
1001 2,,元町,,33.3149741,130.9384489,1001 2,,0,,,,
1001 3,,元町,,33.3149657,130.9384355,1001 3,,0,,,,
1001 4,,元町,,33.3150268,130.9383363,1001 4,,0,,,,
1002 1,,一ノ宮病院前,,33.311724,130.9368449,1002 1,,0,,,,
1002 2,,一ノ宮病院前,,33.3116881,130.9369227,1002 2,,0,,,,
1003 1,,竹田新町,,33.3097554,130.9363742,1003 1,,0,,,,
1003 2,,竹田新町,,33.3097818,130.9364493,1003 2,,0,,,,
1004 1,,竹田公園前,,33.3092818,130.9380023,1004 1,,0,,,,
1004 2,,竹田公園前,,33.3093317,130.9379956,1004 2,,0,,,,
1005 1,,若宮町,,33.3086262,130.9404647,1005 1,,0,,,,
1005 2,,若宮町,,33.3086643,130.9405371,1005 2,,0,,,,
1006 1,,下井手入口,,33.3064557,130.9429839,1006 1,,0,,,,
1006 2,,下井手入口,,33.3064994,130.9430094,1006 2,,0,,,,
1007 1,,小渕一丁目,,33.3041138,130.9466028,1007 1,,0,,,,
1007 2,,小渕一丁目,,33.3041698,130.9466283,1007 2,,0,,,,
1008 1,,小渕,,33.3030769,130.9483443,1008 1,,0,,,,
1008 2,,小渕,,33.3031273,130.9483886,1008 2,,0,,,,
1009 1,,桃山町,,33.300871,130.9520055,1009 1,,0,,,,
1009 2,,桃山町,,33.3009097,130.9519834,1009 2,,0,,,,
1010 1,,自動車学校下,,33.2985878,130.953484,1010 1,,0,,,,
1010 2,,自動車学校下,,33.2986298,130.9535491,1010 2,,0,,,,
1011 1,,地蔵,,33.2934673,130.9590375,1011 1,,0,,,,
1011 2,,地蔵,,33.2934897,130.9591421,1011 2,,0,,,,
1012 1,,敬天荘前,,33.28899,130.9636268,1012 1,,0,,,,
1012 2,,敬天荘前,,33.2890012,130.963726,1012 2,,0,,,,
1013 1,,高取,,33.287296,130.9648539,1013 1,,0,,,,
1013 2,,高取,,33.2873414,130.9648908,1013 2,,0,,,,
1014 1,,見寄,,33.2856009,130.9683274,1014 1,,0,,,,
1014 2,,見寄,,33.2856715,130.9683502,1014 2,,0,,,,
1015 1,,下本村,,33.2813889,130.9717338,1015 1,,0,,,,
1015 2,,下本村,,33.2814438,130.9718009,1015 2,,0,,,,
1016 1,,本村,,33.2809337,130.9754125,1016 1,,0,,,,
1016 2,,本村,,33.2810122,130.9754045,1016 2,,0,,,,
1017 1,,二本木,,33.2823586,130.978281,1017 1,,0,,,,
1017 2,,二本木,,33.2824259,130.9782622,1017 2,,0,,,,
1018 1,,金迫,,33.2784918,130.9834698,1018 1,,0,,,,
1018 2,,金迫,,33.2785165,130.9835529,1018 2,,0,,,,
1019 1,,塔の本,,33.2705602,130.9864953,1019 1,,0,,,,
1019 2,,塔の本,,33.2705927,130.986616,1019 2,,0,,,,
1020 1,,伝切,,33.267813,130.9903088,1020 1,,0,,,,
1020 2,,伝切,,33.2678265,130.9904201,1020 2,,0,,,,
1021 1,,花香,,33.2641541,130.9959004,1021 1,,0,,,,
1021 2,,花香,,33.2642281,130.9959514,1021 2,,0,,,,
1022 1,,大鳥,,33.2544381,131.0044353,1022 1,,0,,,,
1022 2,,大鳥,,33.2544964,131.0044326,1022 2,,0,,,,
1023 1,,鼠谷,,33.2504549,131.0074716,1023 1,,0,,,,
1023 2,,鼠谷,,33.2503371,131.0076419,1023 2,,0,,,,
1024 1,,天神の木,,33.2343594,131.0137298,1024 1,,0,,,,
1024 2,,天神の木,,33.2344003,131.0138029,1024 2,,0,,,,
1025 1,,小迫,,33.2317771,131.0158481,1025 1,,0,,,,
1025 2,,小迫,,33.2317698,131.0159225,1025 2,,0,,,,
1026 1,,天瀬第2消防センター,,33.2290292,131.0178181,1026 1,,0,,,,
1026 2,,天瀬第2消防センター,,33.229055,131.0178919,1026 2,,0,,,,
1027 1,,五馬地区公民館入口,,33.2269347,131.0181762,1027 1,,0,,,,
1027 2,,五馬地区公民館入口,,33.2269325,131.0182728,1027 2,,0,,,,
1028 1,,近原,,33.2171203,131.0222716,1028 1,,0,,,,
1028 2,,近原,,33.2171161,131.0223282,1028 2,,0,,,,
1029 1,,見折谷,,33.2148517,131.0197473,1029 1,,0,,,,
1029 2,,見折谷,,33.2148147,131.019815,1029 2,,0,,,,
1030 1,,戸刈田,,33.2129539,131.0203636,1030 1,,0,,,,
1030 2,,戸刈田,,33.2129533,131.02044,1030 2,,0,,,,
1031 1,,鳥越入口,,33.2081722,131.022736,1031 1,,0,,,,
1031 2,,鳥越入口,,33.2080796,131.0228453,1031 2,,0,,,,
1032 1,,下中村,,33.2069928,131.021981,1032 1,,0,,,,
1032 2,,下中村,,33.2069558,131.0220668,1032 2,,0,,,,
1033 1,,中村,,33.2052659,131.0204581,1033 1,,0,,,,
1033 2,,中村,,33.2051963,131.0204393,1033 2,,0,,,,
1034 1,,出口,,33.2050358,131.0195589,1034 1,,0,,,,
1034 2,,出口,,33.2049528,131.0196018,1034 2,,0,,,,
1035 1,,芋作入口,,33.2040827,131.0166467,1035 1,,0,,,,
1035 2,,芋作入口,,33.2039772,131.0166735,1035 2,,0,,,,
1036 1,,中園,,33.2036287,131.0133281,1036 1,,0,,,,
1036 2,,中園,,33.2035412,131.0133469,1036 2,,0,,,,
1037 1,,榎迫,,33.2036591,131.0119079,1037 1,,0,,,,
1037 2,,榎迫,,33.2035379,131.0118677,1037 2,,0,,,,
1038 1,,老松天満宮前,,33.2004227,131.0087201,1038 1,,0,,,,
1038 2,,老松天満宮前,,33.2004137,131.008873,1038 2,,0,,,,
1039 1,,下久木野,,33.1998462,131.0081622,1039 1,,0,,,,
1039 2,,下久木野,,33.1998327,131.0082856,1039 2,,0,,,,
1040 1,,久木野,,33.1969473,131.0081301,1040 1,,0,,,,
1040 2,,久木野,,33.1969114,131.0082454,1040 2,,0,,,,
1041 1,,下袋,,33.1918275,131.0042274,1041 1,,0,,,,
1041 2,,下袋,,33.1918073,131.0043454,1041 2,,0,,,,
1042 1,,袋,,33.1873281,131.0010453,1042 1,,0,,,,
1042 2,,袋,,33.1872473,131.0010775,1042 2,,0,,,,
1043 1,,五馬入口,,33.1883561,130.9949986,1043 1,,0,,,,
1043 2,,五馬入口,,33.1884301,130.9950133,1043 2,,0,,,,
1044 1,,五反田病院前,,33.3091216,130.9432655,1044 1,,0,,,,
1044 2,,五反田病院前,,33.3091933,130.9433218,1044 2,,0,,,,
1045 1,,下井手,,33.3073401,130.9453663,1045 1,,0,,,,
1045 2,,下井手,,33.3073673,130.9454521,1045 2,,0,,,,
1046 1,,三芳,,33.3050181,130.9489276,1046 1,,0,,,,
1046 2,,三芳,,33.3050638,130.9490738,1046 2,,0,,,,
1047 1,,小渕,,33.3038817,130.9491865,1047 1,,0,,,,
1047 2,,小渕,,33.3033751,130.9490423,1047 2,,0,,,,
1048 1,,下大部,,33.3001448,130.9502681,1048 1,,0,,,,
1048 2,,下大部,,33.3003897,130.9502127,1048 2,,0,,,,
1049 1,,大部,,33.2964925,130.9525382,1049 1,,0,,,,
1049 2,,大部,,33.2965009,130.9526361,1049 2,,0,,,,
1050 1,,江良,,33.2895062,130.9488083,1050 1,,0,,,,
1050 2,,江良,,33.2895802,130.9488834,1050 2,,0,,,,
1051 1,,木の花ガルテン前,,33.2819769,130.9556542,1051 1,,0,,,,
1051 2,,木の花ガルテン前,,33.2820913,130.9557444,1051 2,,0,,,,
1052 1,,下千丈,,33.2804247,130.954345,1052 1,,0,,,,
1052 2,,下千丈,,33.2803742,130.9543946,1052 2,,0,,,,
1053 1,,千丈,,33.275764,130.95508,1053 1,,0,,,,
1053 2,,千丈,,33.2758201,130.9551672,1053 2,,0,,,,
1054 1,,尾釣入口,,33.2739094,130.9560965,1054 1,,0,,,,
1054 2,,尾釣入口,,33.2739184,130.9561984,1054 2,,0,,,,
1055 1,,片瀬古,,33.2711915,130.9572539,1055 1,,0,,,,
1055 2,,片瀬古,,33.2713003,130.957274,1055 2,,0,,,,
1056 1,,川原,,33.265613,130.9596879,1056 1,,0,,,,
1056 2,,川原,,33.2656287,130.9597885,1056 2,,0,,,,
1057 1,,下川原水天宮前,,33.2636439,130.9597899,1057 1,,0,,,,
1057 2,,下川原水天宮前,,33.2636405,130.9598985,1057 2,,0,,,,
1058 1,,下川原,,33.2620728,130.9595793,1058 1,,0,,,,
1058 2,,下川原,,33.261834,130.9596705,1058 2,,0,,,,
1059 1,,中川原,,33.260254,130.9605396,1059 1,,0,,,,
1059 2,,中川原,,33.2603178,130.9607045,1059 2,,0,,,,
1060 1,,渡辺医院前,,33.2595497,130.9620335,1060 1,,0,,,,
1060 2,,渡辺医院前,,33.2596103,130.9621032,1060 2,,0,,,,
1061 1,,大山振興局前,,33.2585604,130.9639742,1061 1,,0,,,,
1061 2,,大山振興局前,,33.2586468,130.9640506,1061 2,,0,,,,
1062 1,,奥日田観光案内所前,,33.2570141,130.9662044,1062 1,,0,,,,
1062 2,,奥日田観光案内所前,,33.2570421,130.9662902,1062 2,,0,,,,
1063 1,,中大山,,33.2547061,130.9681369,1063 1,,0,,,,
1063 2,,中大山,,33.2547386,130.9682375,1063 2,,0,,,,
1064 1,,小平,,33.2525449,130.9700413,1064 1,,0,,,,
1064 2,,小平,,33.2522915,130.9706917,1064 2,,0,,,,
1065 1,,水辺の郷おおやま前,,33.2485073,130.9714897,1065 1,,0,,,,
1065 2,,水辺の郷おおやま前,,33.2485353,130.9716265,1065 2,,0,,,,
1066 1,,野瀬部入口,,33.2454635,130.973539,1066 1,,0,,,,
1066 2,,野瀬部入口,,33.2455577,130.9736221,1066 2,,0,,,,
1067 1,,小切畑,,33.2415119,130.9730561,1067 1,,0,,,,
1067 2,,小切畑,,33.2415478,130.9732224,1067 2,,0,,,,
1068 1,,後迫,,33.2404261,130.9760346,1068 1,,0,,,,
1068 2,,後迫,,33.2404755,130.9761473,1068 2,,0,,,,
1069 1,,烏宿うめひびき入口,,33.2378048,130.977703,1069 1,,0,,,,
1069 2,,烏宿うめひびき入口,,33.2378687,130.9778063,1069 2,,0,,,,
1070 1,,下鎌手,,33.231408,130.9787715,1070 1,,0,,,,
1070 2,,下鎌手,,33.2314136,130.9788805,1070 2,,0,,,,
1071 1,,中鎌手,,33.2288216,130.9813817,1071 1,,0,,,,
1071 2,,中鎌手,,33.2282125,130.98167,1071 2,,0,,,,
1072 1,,上鎌手,,33.2264422,130.9845373,1072 1,,0,,,,
1072 2,,上鎌手,,33.2265174,130.9846486,1072 2,,0,,,,
1073 1,,下釣,,33.221617,130.9887215,1073 1,,0,,,,
1073 2,,下釣,,33.2216249,130.9888382,1073 2,,0,,,,
1074 1,,柚木,,33.2154172,130.9868802,1074 1,,0,,,,
1074 2,,柚木,,33.2154284,130.9869647,1074 2,,0,,,,
1075 1,,竹の首,,33.2087871,130.9838024,1075 1,,0,,,,
1075 2,,竹の首,,33.208777,130.9839231,1075 2,,0,,,,
1076 1,,汗入場,,33.2053736,130.9867019,1076 1,,0,,,,
1076 2,,汗入場,,33.205377,130.9868454,1076 2,,0,,,,
1077 1,,下松原,,33.1999132,130.987257,1077 1,,0,,,,
1077 2,,下松原,,33.1999446,130.9873509,1077 2,,0,,,,
1078 1,,松原,,33.1948733,130.9924618,1078 1,,0,,,,
1078 2,,松原,,33.1948801,130.9924846,1078 2,,0,,,,
1079 1,,岩戸公園,,33.1780727,131.014904,1079 1,,0,,,,
1079 2,,岩戸公園,,33.1781468,131.0149322,1079 2,,0,,,,
1080 1,,杖立,,33.1835496,131.0342152,1080 1,,0,,,,
1080 2,,杖立,,33.1836287,131.0342642,1080 2,,0,,,,
1081 1,,下野瀬部,,33.2450854,130.9747539,1081 1,,0,,,,
1081 2,,下野瀬部,,33.2451303,130.9748585,1081 2,,0,,,,
1082 1,,中野瀬部,,33.2442824,130.9773745,1082 1,,0,,,,
1082 2,,中野瀬部,,33.2443542,130.9773893,1082 2,,0,,,,
1083 1,,上野瀬部,,33.2429252,130.9804027,1083 1,,0,,,,
1083 2,,上野瀬部,,33.2429712,130.9804711,1083 2,,0,,,,
1084 1,,下鎌手,,33.2314103,130.9787632,1084 1,,0,,,,
1084 2,,下鎌手,,33.2314155,130.9788768,1084 2,,0,,,,
1085 1,,大原裏口,,33.3203612,130.9554072,1085 1,,0,,,,
1085 2,,大原裏口,,33.3202962,130.9554796,1085 2,,0,,,,
1086 1,,中ノ島町,,33.311418,130.9221719,1086 1,,0,,,,
1086 2,,中ノ島町,,33.3114208,130.9221894,1086 2,,0,,,,
1087 1,,三和小前,,33.3501517,130.9417205,1087 1,,0,,,,
1087 2,,三和小前,,33.3502173,130.9416475,1087 2,,0,,,,
1088 1,,竜体山入口,,33.354998,130.9498449,1088 1,,0,,,,
1088 2,,竜体山入口,,33.3550582,130.9498389,1088 2,,0,,,,
1089 1,,通戸,,33.3596399,130.9553642,1089 1,,0,,,,
1089 2,,通戸,,33.3596746,130.9552975,1089 2,,0,,,,
1090 1,,西河内,,33.3716806,130.9481638,1090 1,,0,,,,
1090 2,,西河内,,33.3716414,130.9480847,1090 2,,0,,,,
1091 1,,中会,,33.3926519,130.941335,1091 1,,0,,,,
1091 2,,中会,,33.3927236,130.9412519,1091 2,,0,,,,
1092 1,,竹尾橋,,33.399557,130.9396009,1092 1,,0,,,,
1092 2,,竹尾橋,,33.399548,130.9394802,1092 2,,0,,,,
1093 1,,和田,,33.4200582,130.9274177,1093 1,,0,,,,
1093 2,,和田,,33.4200325,130.9273339,1093 2,,0,,,,
1094 1,,轟橋,,33.4237907,130.9250878,1094 1,,0,,,,
1094 2,,轟橋,,33.4237442,130.9250298,1094 2,,0,,,,
1095 1,,矢瀬,,33.2862354,131.0076177,1095 1,,0,,,,
1095 2,,矢瀬,,33.2863296,131.0074782,1095 2,,0,,,,
1096 1,,藪の不動尊入口,,33.2915226,131.0236757,1096 1,,0,,,,
1096 2,,藪の不動尊入口,,33.291591,131.0236274,1096 2,,0,,,,
1097 1,,高塚,,33.2968958,131.0509548,1097 1,,0,,,,
1097 2,,高塚,,33.2970717,131.0509575,1097 2,,0,,,,
1098 1,,代太郎,,33.2967365,131.053452,1098 1,,0,,,,
1098 2,,代太郎,,33.296945,131.0535807,1098 2,,0,,,,
1099 1,,栂野,,33.2954278,131.0628095,1099 1,,0,,,,
1099 2,,栂野,,33.2955444,131.0629114,1099 2,,0,,,,
1100 1,,栃の木,,33.2876003,131.0733882,1100 1,,0,,,,
1100 2,,栃の木,,33.2876687,131.0734378,1100 2,,0,,,,
1101 1,,内河野,,33.2864361,131.0771493,1101 1,,0,,,,
1101 2,,内河野,,33.2864978,131.0772579,1101 2,,0,,,,
1102 1,,下内河野,,33.2854115,131.0801098,1102 1,,0,,,,
1102 2,,下内河野,,33.2854743,131.0802104,1102 2,,0,,,,
1103 1,,円徳野,,33.2882802,131.0852328,1103 1,,0,,,,
1103 2,,円徳野,,33.2883262,131.0853468,1103 2,,0,,,,
1104 1,,小麦河野,,33.2853314,131.0869937,1104 1,,0,,,,
1104 2,,小麦河野,,33.2853538,131.087156,1104 2,,0,,,,
1105 1,,平川,,33.2823996,131.0906629,1105 1,,0,,,,
1105 2,,平川,,33.2823189,131.0905932,1105 2,,0,,,,
1106 1,,十文字,,33.2850561,131.1530766,1106 1,,0,,,,
1106 2,,十文字,,33.2850684,131.1529747,1106 2,,0,,,,
1107 1,,自衛隊入口,,33.2899484,131.1545753,1107 1,,0,,,,
1107 2,,自衛隊入口,,33.289926,131.1546464,1107 2,,0,,,,
1109 1,,天瀬温泉,,33.2545867,131.0287891,1109 1,,0,,,,
1109 2,,天瀬温泉,,33.2546461,131.0287643,1109 2,,0,,,,
1110 1,,小迫町,,33.3347681,130.9195447,1110 1,,0,,,,
1110 2,,小迫町,,33.3347614,130.9194186,1110 2,,0,,,,
1111 1,,小迫町コミュニティ広場前,,33.3340907,130.923853,1111 1,,0,,,,
1111 2,,小迫町コミュニティ広場前,,33.3340111,130.9238825,1111 2,,0,,,,
1112 1,,上銭渕,,33.3065393,130.9332132,1112 1,,0,,,,
1112 2,,上銭渕,,33.306518,130.9331394,1112 2,,0,,,,
1114 1,,隈温泉旅館街,,33.3124139,130.9317716,1114 1,,0,,,,
1114 2,,隈温泉旅館街,,33.3123691,130.9316895,1114 2,,0,,,,
1115 1,,隈町入口,,33.3138621,130.9331824,1115 1,,0,,,,
1115 2,,隈町入口,,33.3139305,130.9331321,1115 2,,0,,,,
1116 1,,工業団地入口,,33.314778,130.9095729,1116 1,,0,,,,
1116 2,,工業団地入口,,33.3148542,130.909483,1116 2,,0,,,,
1117 1,,琴平町,,33.3026976,130.9415445,1117 1,,0,,,,
1117 2,,琴平町,,33.3027817,130.9415847,1117 2,,0,,,,
1118 1,,古園入口,,33.2557264,131.0324164,1118 1,,0,,,,
1118 2,,古園入口,,33.2557664,131.0323943,1118 2,,0,,,,
1119 1,,誠和町,,33.3009165,130.936108,1119 1,,0,,,,
1119 2,,誠和町,,33.300926,130.9360081,1119 2,,0,,,,
1120 1,,光岡小学校前,,33.3286699,130.9224341,1120 1,,0,,,,
1120 2,,光岡小学校前,,33.3285836,130.9224395,1120 2,,0,,,,
1121 1,,誠和町公民館前,,33.304197,130.934488,1121 1,,0,,,,
1121 2,,誠和町公民館前,,33.3041729,130.9344163,1121 2,,0,,,,
1122 1,,吹上住宅,,33.3295483,130.9275793,1122 1,,0,,,,
1122 2,,吹上住宅,,33.3294755,130.9275954,1122 2,,0,,,,
1124 1,,本町,,33.3152115,130.9356242,1124 1,,0,,,,
1124 2,,本町,,33.3152698,130.9355424,1124 2,,0,,,,
1125 1,,三隈高校前,,33.3321172,130.9166228,1125 1,,0,,,,
1125 2,,三隈高校前,,33.3321144,130.916539,1125 2,,0,,,,
1126 1,,三隈中前,,33.3166406,130.9150915,1126 1,,0,,,,
1126 2,,三隈中前,,33.3166917,130.9151157,1126 2,,0,,,,
1127 1,,三隈橋北,,33.3168121,130.9121726,1127 1,,0,,,,
1127 2,,三隈橋北,,33.3168877,130.9120935,1127 2,,0,,,,
1128 1,,港町,,33.3245711,130.9352048,1128 1,,0,,,,
1128 2,,港町,,33.3246221,130.9351401,1128 2,,0,,,,
1129 1,,向新治,,33.3210359,130.9189869,1129 1,,0,,,,
1129 2,,向新治,,33.3210785,130.9188997,1129 2,,0,,,,
1130 1,,赤岩,,33.2590125,131.0502923,1130 1,,0,,,,
1130 2,,赤岩,,33.2590921,131.0502004,1130 2,,0,,,,
1131 1,,北山田駅前,,33.2816305,131.0992038,1131 1,,0,,,,
1131 2,,北山田駅前,,33.2817426,131.0992688,1131 2,,0,,,,
1132 1,,北山田小,,33.2849955,131.0946406,1132 1,,0,,,,
1132 2,,北山田小,,33.2849955,131.0946406,1132 2,,0,,,,
1133 1,,矢園,,33.2816277,131.090966,1133 1,,0,,,,
1133 2,,矢園,,33.2816966,131.0908259,1133 2,,0,,,,
1134 1,,北山田小前,,33.2824864,131.0940345,1134 1,,0,,,,
1134 2,,北山田小前,,33.2826221,131.094013,1134 2,,0,,,,
1135 1,,滝神社前,,33.2820067,131.0971337,1135 1,,0,,,,
1135 2,,滝神社前,,33.2821031,131.0973644,1135 2,,0,,,,
1136 1,,滝ヶ瀬踏切前,,33.2736493,131.083836,1136 1,,0,,,,
1136 2,,滝ヶ瀬踏切前,,33.2736785,131.0838655,1136 2,,0,,,,
1138 1,,上代太郎,,33.2954547,131.0569871,1138 1,,0,,,,
1138 2,,上代太郎,,33.2955646,131.0570112,1138 2,,0,,,,
1141 1,,中川駅前,,33.2851676,131.0057797,1141 1,,0,,,,
1141 2,,中川駅前,,33.285079,131.006007,1141 2,,0,,,,
1142 1,,塩井,,33.2874636,130.9931593,1142 1,,0,,,,
1142 2,,塩井,,33.2878661,130.9942409,1142 2,,0,,,,
1143 1,,下矢瀬,,33.2883677,130.9997635,1143 1,,0,,,,
1143 2,,下矢瀬,,33.2882567,131.0000324,1143 2,,0,,,,
1144 1,,寅丸,,33.2932587,131.030953,1144 1,,0,,,,
1144 2,,寅丸,,33.293437,131.0310549,1144 2,,0,,,,
1145 1,,石畳,,33.2946118,131.0414216,1145 1,,0,,,,
1145 2,,石畳,,33.2946948,131.0414645,1145 2,,0,,,,
1146 1,,高釣,,33.2884479,131.0189956,1146 1,,0,,,,
1146 2,,高釣,,33.2885735,131.0189661,1146 2,,0,,,,
1147 1,,北平,,33.2925021,131.0389238,1147 1,,0,,,,
1147 2,,北平,,33.2926153,131.0389386,1147 2,,0,,,,
1148 1,,金場,,33.2934123,130.9794451,1148 1,,0,,,,
1148 2,,金場,,33.2934303,130.978792,1148 2,,0,,,,
1149 1,,榎釣,,33.2959575,130.9839036,1149 1,,0,,,,
1149 2,,榎釣,,33.296184,130.9840921,1149 2,,0,,,,
1150 1,,獺野尾,,33.2962014,130.9898159,1150 1,,0,,,,
1150 2,,獺野尾,,33.2972376,130.9902042,1150 2,,0,,,,
1151 1,,川原,,33.2906081,130.9887302,1151 1,,0,,,,
1151 2,,川原,,33.290315,130.9894316,1151 2,,0,,,,
1152 1,,五和振興センター前,,33.3124094,130.9112057,1152 1,,0,,,,
1152 2,,五和振興センター前,,33.3124705,130.9111061,1152 2,,0,,,,
1153 1,,石井町一丁目,,33.3108991,130.9111591,1153 1,,0,,,,
1153 2,,石井町一丁目,,33.3108184,130.9111618,1153 2,,0,,,,
1154 1,,石井,,33.3135974,130.9094978,1154 1,,0,,,,
1154 2,,石井,,33.3135133,130.9093825,1154 2,,0,,,,
1155 1,,鏡坂,,33.3098176,130.9280594,1155 1,,0,,,,
1155 2,,鏡坂,,33.3098089,130.9273674,1155 2,,0,,,,
1156 1,,泉,,33.3099677,130.922304,1156 1,,0,,,,
1156 2,,泉,,33.3101207,130.9229418,1156 2,,0,,,,
1157 1,,はなの樹　RIVER TERRACE,,33.3130734,130.9181767,1157 1,,0,,,,
1157 2,,はなの樹　RIVER TERRACE,,33.3130868,130.9182358,1157 2,,0,,,,
1158 1,,山田入口,,33.3417292,130.9113511,1158 1,,0,,,,
1158 2,,山田入口,,33.3417292,130.9113511,1158 2,,0,,,,
1159 1,,小迫入口,,33.3322746,130.9192832,1159 1,,0,,,,
1159 2,,小迫入口,,33.3321777,130.9193087,1159 2,,0,,,,
1160 1,,朝日町入口,,33.3392106,130.9190538,1160 1,,0,,,,
1160 2,,朝日町入口,,33.3392151,130.9189264,1160 2,,0,,,,
1161 1,,朝日ヶ丘団地,,33.3345928,130.9159572,1161 1,,0,,,,
1161 2,,朝日ヶ丘団地,,33.3345614,130.915866,1161 2,,0,,,,
1162 1,,朝日小学校前,,33.341103,130.9181014,1162 1,,0,,,,
1162 2,,朝日小学校前,,33.3410358,130.9180129,1162 2,,0,,,,
1163 1,,城町一丁目,,33.3273941,130.9417856,1163 1,,0,,,,
1163 2,,城町一丁目,,33.3272187,130.9416454,1163 2,,0,,,,
1164 1,,日田リハビリテーション病院,,33.3342186,130.9414858,1164 1,,0,,,,
1164 2,,日田リハビリテーション病院,,33.3342175,130.9414717,1164 2,,0,,,,
1165 1,,竹田新町,,33.3104895,130.9362489,1165 1,,0,,,,
1165 2,,竹田新町,,33.3102144,130.9361376,1165 2,,0,,,,
1166 1,,三隈川・川原町,,33.3108159,130.9348675,1166 1,,0,,,,
1166 2,,三隈川・川原町,,33.3107736,130.9348025,1166 2,,0,,,,
1167 1,,城内団地上,,33.3216186,130.9542418,1167 1,,0,,,,
1167 2,,城内団地上,,33.3216242,130.9543638,1167 2,,0,,,,
1168 1,,三本松,,33.3202598,130.9341956,1168 1,,0,,,,
1168 2,,三本松,,33.3201169,130.9342315,1168 2,,0,,,,
1171 1,,玉川町,,33.3219153,130.9266441,1171 1,,0,,,,
1171 2,,玉川町,,33.3220173,130.9266666,1171 2,,0,,,,
1173 1,,慈眼山前,,33.3301473,130.9423214,1173 1,,0,,,,
1173 2,,慈眼山前,,33.3302347,130.9422509,1173 2,,0,,,,
1174 1,,大宮町入口,,33.3012096,130.9428716,1174 1,,0,,,,
1174 2,,大宮町入口,,33.3011311,130.9429011,1174 2,,0,,,,
1175 1,,高瀬,,33.30541,130.9396761,1175 1,,0,,,,
1175 2,,高瀬,,33.3054599,130.9397391,1175 2,,0,,,,
1176 1,,琴平公民館前,,33.3003264,130.9387206,1176 1,,0,,,,
1176 2,,琴平公民館前,,33.3002199,130.9387447,1176 2,,0,,,,
1177 1,,銭渕橋,,33.309459,130.9306337,1177 1,,0,,,,
1177 2,,銭渕橋,,33.3093771,130.9306481,1177 2,,0,,,,
1178 1,,下高瀬本町,,33.3063227,130.937205,1178 1,,0,,,,
1178 2,,下高瀬本町,,33.3063832,130.9372251,1178 2,,0,,,,
1179 1,,総合運動公園,,33.3198548,130.9517245,1179 1,,0,,,,
1179 2,,総合運動公園,,33.3197797,130.9516467,1179 2,,0,,,,
1180 1,,田島町,,33.316003,130.9453147,1180 1,,0,,,,
1180 2,,田島町,,33.3158864,130.945304,1180 2,,0,,,,
1181 1,,大原前,,33.3208706,130.9379541,1181 1,,0,,,,
1181 2,,大原前,,33.3209434,130.938048,1181 2,,0,,,,
1182 1,,咸宜園前,,33.3226125,130.9347172,1182 1,,0,,,,
1182 2,,咸宜園前,,33.3226058,130.9346079,1182 2,,0,,,,
1183 1,,中央通り,,33.3184131,130.9365491,1183 1,,0,,,,
1183 2,,中央通り,,33.3184546,130.93663,1183 2,,0,,,,
1184 1,,パトリア前,,33.318597,130.9347039,1184 1,,0,,,,
1184 2,,パトリア前,,33.318653,130.9347612,1184 2,,0,,,,
1185 1,,光岡駅前,,33.3288119,130.9192577,1185 1,,0,,,,
1185 2,,光岡駅前,,33.3287811,130.9191591,1185 2,,0,,,,
1186 1,,日高町,,33.3031089,130.9542316,1186 1,,0,,,,
1186 2,,日高町,,33.3030834,130.9544737,1186 2,,0,,,,
1187 1,,小ヶ瀬,,33.2973988,130.9598636,1187 1,,0,,,,
1187 2,,小ヶ瀬,,33.2973363,130.9604376,1187 2,,0,,,,
1188 1,,上小ヶ瀬,,33.2985205,130.9700614,1188 1,,0,,,,
1188 2,,上小ヶ瀬,,33.2982764,130.9704027,1188 2,,0,,,,
1189 1,,女子畑発電所前,,33.2962389,130.9719443,1189 1,,0,,,,
1189 2,,女子畑発電所前,,33.2963202,130.9720127,1189 2,,0,,,,
1190 1,,日の出町スイミングスクール,,33.335567,130.9403506,1190 1,,0,,,,
1190 2,,日の出町スイミングスクール,,33.3356205,130.9401511,1190 2,,0,,,,
1191 1,,吹上公民館前,,33.3305983,130.9290337,1191 1,,0,,,,
1191 2,,吹上公民館前,,33.3305019,130.9292295,1191 2,,0,,,,
1192 1,,豆田町,,33.3268117,130.9360027,1192 1,,0,,,,
1192 2,,豆田町,,33.3268524,130.9358988,1192 2,,0,,,,
1193 1,,御幸橋,,33.3290153,130.9363165,1193 1,,0,,,,
1193 2,,御幸橋,,33.3290284,130.9362324,1193 2,,0,,,,
1194 1,,月隈公園,,33.3322093,130.9371111,1194 1,,0,,,,
1194 2,,月隈公園,,33.3322154,130.9370166,1194 2,,0,,,,
1196 1,,田島団地入口,,33.3157527,130.949225,1196 1,,0,,,,
1196 2,,田島団地入口,,33.3156787,130.9492411,1196 2,,0,,,,
1197 1,,こじかこどもクリニック前,,33.3351178,130.9304439,1197 1,,0,,,,
1197 2,,こじかこどもクリニック前,,33.3351267,130.9303373,1197 2,,0,,,,
1198 1,,清岸寺入口,,33.3341598,130.9324723,1198 1,,0,,,,
1198 2,,清岸寺入口,,33.3339335,130.932481,1198 2,,0,,,,
1199 1,,林工西口,,33.3330522,130.9311667,1199 1,,0,,,,
1199 2,,林工西口,,33.3329547,130.9313585,1199 2,,0,,,,
1200 1,,昭和学園前,,33.3329922,130.9407744,1200 1,,0,,,,
1200 2,,昭和学園前,,33.332971,130.9406322,1200 2,,0,,,,
1201 1,,月隈団地,,33.3346908,130.9361254,1201 1,,0,,,,
1201 2,,月隈団地,,33.3347031,130.9360114,1201 2,,0,,,,
1202 1,,清岸寺町,,33.33765,130.9299744,1202 1,,0,,,,
1202 2,,清岸寺町,,33.3375592,130.9299261,1202 2,,0,,,,
1203 1,,日田インター口,,33.3349379,130.9345094,1203 1,,0,,,,
1203 2,,日田インター口,,33.3347889,130.9347944,1203 2,,0,,,,
1206 1,,萩ヶ原,,33.2887926,131.0667101,1206 1,,0,,,,
1206 2,,萩ヶ原,,33.2888363,131.0668523,1206 2,,0,,,,
1216 1,,戸畑,,33.2809023,131.108163,1216 1,,0,,,,
1216 2,,戸畑,,33.2809763,131.108179,1216 2,,0,,,,
1217 1,,駅東,,33.2816366,131.1037991,1217 1,,0,,,,
1217 2,,駅東,,33.2814696,131.105631,1217 2,,0,,,,
1218 1,,谷の瀬,,33.2782373,131.1199567,1218 1,,0,,,,
1218 2,,谷の瀬,,33.2781258,131.120994,1218 2,,0,,,,
1219 1,,滝瀬,,33.27139,131.0816641,1219 1,,0,,,,
1219 2,,滝瀬,,33.271344,131.0814737,1219 2,,0,,,,
1220 1,,広瀬,,33.2797834,131.1264986,1220 1,,0,,,,
1220 2,,広瀬,,33.2798798,131.1264932,1220 2,,0,,,,
1221 1,,矢野釣,,33.2674093,131.0738951,1221 1,,0,,,,
1221 2,,矢野釣,,33.267499,131.0727981,1221 2,,0,,,,
1222 1,,戸畑自治公民館前,,33.2801343,131.1113803,1222 1,,0,,,,
1222 2,,戸畑自治公民館前,,33.2802038,131.1113937,1222 2,,0,,,,
1223 1,,慈恩の滝,,33.2655962,131.0679955,1223 1,,0,,,,
1223 2,,慈恩の滝,,33.2657251,131.067954,1223 2,,0,,,,
1224 1,,中山田,,33.2796499,131.1328205,1224 1,,0,,,,
1224 2,,中山田,,33.2797419,131.1328259,1224 2,,0,,,,
1225 1,,門出,,33.2782486,131.1452821,1225 1,,0,,,,
1225 2,,門出,,33.2782844,131.1456495,1225 2,,0,,,,
1226 1,,森中央小前,,33.2946202,131.1583552,1226 1,,0,,,,
1226 2,,森中央小前,,33.2949974,131.1583015,1226 2,,0,,,,
1227 1,,森御幸町,,33.2970123,131.1586408,1227 1,,0,,,,
1227 2,,森御幸町,,33.2970207,131.1585744,1227 2,,0,,,,
1228 1,,森町,,33.2987442,131.1588594,1228 1,,0,,,,
1228 2,,森町,,33.2987498,131.1587877,1228 2,,0,,,,
1229 1,,総合運動公園西,,33.2789829,131.1388615,1229 1,,0,,,,
1229 2,,総合運動公園西,,33.2791,131.1385034,1229 2,,0,,,,
1230 1,,塚脇,,33.277171,131.1509443,1230 1,,0,,,,
1230 2,,塚脇,,33.2770948,131.1507458,1230 2,,0,,,,
1231 1,,旧森中学校前,,33.2916732,131.155683,1231 1,,0,,,,
1231 2,,旧森中学校前,,33.2917225,131.1556281,1231 2,,0,,,,
1232 1,,栄町,,33.2928552,131.1567868,1232 1,,0,,,,
1232 2,,栄町,,33.2928944,131.1567298,1232 2,,0,,,,
1233 1,,森駅前,,33.2830823,131.154989,1233 1,,0,,,,
1233 2,,森駅前,,33.2831154,131.1549769,1233 2,,0,,,,
1234 1,,春日町,,33.2822319,131.1527064,1234 1,,0,,,,
1234 2,,春日町,,33.2823643,131.1526206,1234 2,,0,,,,
1235 1,,上の市,,33.2883744,131.1539322,1235 1,,0,,,,
1235 2,,上の市,,33.2884125,131.1538625,1235 2,,0,,,,
1236 1,,老人福祉センター,,33.3121174,130.9177288,1236 1,,0,,,,
1236 2,,老人福祉センター,,33.3121174,130.9177288,1236 2,,0,,,,
1237 1,,壁野,,33.3529412,130.9473907,1237 1,,0,,,,
1237 2,,壁野,,33.353,130.9473425,1237 2,,0,,,,
1238 1,,商工会議所前,,33.3209541,130.931506,1238 1,,0,,,,
1238 2,,商工会議所前,,33.3211009,130.9312136,1238 2,,0,,,,
1239 1,,天神町,,33.3396208,130.9403466,1239 1,,0,,,,
1239 2,,天神町,,33.3396242,130.9402769,1239 2,,0,,,,
1240 1,,羽野,,33.3413831,130.9404794,1240 1,,0,,,,
1240 2,,羽野,,33.3413865,130.940407,1240 2,,0,,,,
1241 1,,財津,,33.3551783,130.9521737,1241 1,,0,,,,
1241 2,,財津,,33.3552225,130.952165,1241 2,,0,,,,
1242 1,,下藤山,,33.3622839,130.9566879,1242 1,,0,,,,
1242 2,,下藤山,,33.3622884,130.9565934,1242 2,,0,,,,
1243 1,,用松,,33.3447531,130.9398731,1243 1,,0,,,,
1243 2,,用松,,33.3448287,130.9397779,1243 2,,0,,,,
1244 1,,済生会病院入口,,33.346507,130.9401286,1244 1,,0,,,,
1244 2,,済生会病院入口,,33.3465014,130.9400354,1244 2,,0,,,,
1245 1,,三和団地,,33.3481146,130.9406528,1245 1,,0,,,,
1245 2,,三和団地,,33.3481247,130.9405814,1245 2,,0,,,,
1246 1,,新治,,33.3230519,130.9209857,1246 1,,0,,,,
1246 2,,新治,,33.3231191,130.9210065,1246 2,,0,,,,
1247 1,,十二町,,33.3225796,130.9233759,1247 1,,0,,,,
1247 2,,十二町,,33.3226827,130.923214,1247 2,,0,,,,
1248 1,,東河内,,33.3687361,130.9524875,1248 1,,0,,,,
1248 2,,東河内,,33.3686588,130.9524553,1248 2,,0,,,,
1249 1,,午王,,33.3948846,130.9424293,1249 1,,0,,,,
1249 2,,午王,,33.3948712,130.9423227,1249 2,,0,,,,
1250 1,,梛野,,33.3898145,130.9395352,1250 1,,0,,,,
1250 2,,梛野,,33.3898638,130.939436,1250 2,,0,,,,
1251 1,,殿町,,33.4060136,130.9344732,1251 1,,0,,,,
1251 2,,殿町,,33.4059739,130.9344242,1251 2,,0,,,,
1252 1,,上小竹,,33.4037307,130.9383966,1252 1,,0,,,,
1252 2,,上小竹,,33.4037061,130.9383289,1252 2,,0,,,,
1253 1,,ことといの里前,,33.4117734,130.9327411,1253 1,,0,,,,
1253 2,,ことといの里前,,33.4117684,130.9326586,1253 2,,0,,,,
1254 1,,今村,,33.4265983,130.9266996,1254 1,,0,,,,
1254 2,,今村,,33.4266006,130.9266835,1254 2,,0,,,,
1255 1,,下小竹,,33.382285,130.9398369,1255 1,,0,,,,
1255 2,,下小竹,,33.3822856,130.939686,1255 2,,0,,,,
1256 1,,新田,,33.3654141,130.9577447,1256 1,,0,,,,
1256 2,,新田,,33.3654617,130.9577018,1256 2,,0,,,,
1257 1,,城内豆田入口,,33.3246682,130.9411344,1257 1,,0,,,,
1257 2,,城内豆田入口,,33.3249091,130.9410539,1257 2,,0,,,,
1258 1,,アオーゼ前,,33.3253093,130.9416796,1258 1,,0,,,,
1258 2,,アオーゼ前,,33.3254096,130.941689,1258 2,,0,,,,
1259 1,,上城内,,33.3251586,130.9437724,1259 1,,0,,,,
1259 2,,上城内,,33.3252387,130.9436175,1259 2,,0,,,,
1260 1,,日田高前,,33.3234508,130.9449855,1260 1,,0,,,,
1260 2,,日田高前,,33.3234563,130.9451263,1260 2,,0,,,,
1261 1,,皿山,,33.4276891,130.9118756,1261 1,,0,,,,
1261 2,,皿山,,33.4276891,130.9118756,1261 2,,0,,,,
1262 1,,下の釣,,33.2799941,131.0090956,1262 1,,0,,,,
1262 2,,下の釣,,33.2797094,131.0092431,1262 2,,0,,,,
1263 1,,上の釣,,33.2691227,131.0099834,1263 1,,0,,,,
1263 2,,上の釣,,33.2692607,131.0098721,1263 2,,0,,,,
1264 1,,山の釣,,33.2602281,131.0112662,1264 1,,0,,,,
1264 2,,山の釣,,33.2602315,131.0113856,1264 2,,0,,,,
1265 1,,神の釣,,33.2561909,131.0109382,1265 1,,0,,,,
1265 2,,神の釣,,33.2556594,131.0109382,1265 2,,0,,,,
1266 1,,丸山,,33.2737323,131.0051823,1266 1,,0,,,,
1266 2,,丸山,,33.2732311,131.0053473,1266 2,,0,,,,
1267 1,,天瀬駅前,,33.2551513,131.0243574,1267 1,,0,,,,
1267 2,,天瀬駅前,,33.2552231,131.0243561,1267 2,,0,,,,
1268 1,,天瀬振興局前,,33.2548619,131.020542,1268 1,,0,,,,
1268 2,,天瀬振興局前,,33.2549371,131.0205433,1268 2,,0,,,,
1269 1,,湯の釣,,33.2613663,131.0518353,1269 1,,0,,,,
1269 2,,湯の釣,,33.2609896,131.0512867,1269 2,,0,,,,
1270 1,,田島一丁目,,33.3171965,130.9407288,1270 1,,0,,,,
1270 2,,田島一丁目,,33.3168833,130.9408998,1270 2,,0,,,,
1271 1,,市役所前,,33.3211362,130.9405692,1271 1,,0,,,,
1271 2,,市役所前,,33.3211457,130.9404385,1271 2,,0,,,,
1272 1,,警察署前,,33.3227744,130.9408374,1272 1,,0,,,,
1272 2,,警察署前,,33.322793,130.940708,1272 2,,0,,,,
1273 1,,三反畑,,33.3240649,130.9508192,1273 1,,0,,,,
1273 2,,三反畑,,33.3241422,130.9508138,1273 2,,0,,,,
1274 1,,城内団地,,33.3234004,130.9530857,1274 1,,0,,,,
1274 2,,城内団地,,33.3234867,130.9531581,1274 2,,0,,,,
1284 1,,中釣町北,,33.3174372,130.9200257,1284 1,,0,,,,
1284 2,,中釣町北,,33.317493,130.92009,1284 2,,0,,,,
1285 1,,聖陵岩里病院,,33.3165004,130.9229792,1285 1,,0,,,,
1285 2,,聖陵岩里病院,,33.3165012,130.9229782,1285 2,,0,,,,
1286 1,,日隈公民館前,,33.31522,130.923572,1286 1,,0,,,,
1286 2,,日隈公民館前,,33.315145,130.923419,1286 2,,0,,,,
1287 1,,中釣町南,,33.316142,130.918046,1287 1,,0,,,,
1287 2,,中釣町南,,33.316088,130.918073,1287 2,,0,,,,
1289 1,,長者原団地,,33.309804,130.907051,1289 1,,0,,,,
1289 2,,長者原団地,,33.309804,130.907051,1289 2,,0,,,,
1290 1,,南元町,,33.313081,130.938838,1290 1,,0,,,,
1290 2,,南元町,,33.312804,130.939011,1290 2,,0,,,,
1291 1,,若宮病院前,,33.3116446,130.9404867,1291 1,,0,,,,
1291 2,,若宮病院前,,33.3116044,130.94039,1291 2,,0,,,,
1292 1,,五反田病院,,33.309192,130.943147,1292 1,,0,,,,
1292 2,,五反田病院,,33.309192,130.943147,1292 2,,0,,,,
1293 1,,比佐津トンネル南,,33.311195,130.942857,1293 1,,0,,,,
1293 2,,比佐津トンネル南,,33.311165,130.942951,1293 2,,0,,,,
1294 1,,比佐津トンネル北,,33.314772,130.94397,1294 1,,0,,,,
1294 2,,比佐津トンネル北,,33.314789,130.944076,1294 2,,0,,,,
1295 1,,日田駅北広場,,33.317782,130.939219,1295 1,,0,,,,
1295 2,,日田駅北広場,,33.317782,130.939219,1295 2,,0,,,,
1296 1,,サッポロビール九州日田工場,,33.298348,130.9438971,1296 1,,0,,,,
1296 2,,サッポロビール九州日田工場,,33.2983301,130.9439017,1296 2,,0,,,,
1297 1,,塚脇本町,,33.278999,131.152101,1297 1,,0,,,,
1297 2,,塚脇本町,,33.279036,131.152019,1297 2,,0,,,,
