stop_id,stop_code,stop_name,stop_desc,stop_lat,stop_lon,zone_id,stop_url,location_type,parent_station,stop_timezone,wheelchair_boarding,platform_code
3007 1,,日当,,33.0520975,131.6890698,3007 1,,0,,,,
3007 2,,日当,,33.0519111,131.6888499,3007 2,,0,,,,
3008 1,,野津南,,33.0421572,131.6904962,3008 1,,0,,,,
3008 2,,野津南,,33.0424565,131.6904186,3008 2,,0,,,,
3009 1,,野津南保育園前,,33.0391946,131.6896624,3009 1,,0,,,,
3009 2,,野津南保育園前,,33.0391906,131.6897836,3009 2,,0,,,,
3010 1,,板屋,,33.0362719,131.6895008,3010 1,,0,,,,
3010 2,,板屋,,33.0363002,131.6893472,3010 2,,0,,,,
4101 1,,竹田玉来,,32.952594,131.3737655,4101 1,,0,,,,
4101 2,,竹田玉来,,32.9527414,131.3738084,4101 2,,0,,,,
5020 1,,障子岩,,33.0927214,131.7411902,5020 1,,0,,,,
5020 2,,障子岩,,33.09259691,131.7409929,5020 2,,0,,,,
5021 1,,籠の瀬,,33.0949515,131.7475455,5021 1,,0,,,,
5021 2,,籠の瀬,,33.0947988,131.7474515,5021 2,,0,,,,
5022 1,,竹場,,33.0938976,131.7576834,5022 1,,0,,,,
5022 2,,竹場,,33.09396371,131.7571249,5022 2,,0,,,,
5023 1,,深田,,33.09461373,131.7625244,5023 1,,0,,,,
5023 2,,深田,,33.09474707,131.7634743,5023 2,,0,,,,
5024 2,,臼杵石仏,,33.091864,131.7621745,5024 2,,0,,,,
5025 1,,望月,,33.09819681,131.7694903,5025 1,,0,,,,
5025 2,,望月,,33.0982378,131.7697536,5025 2,,0,,,,
5027 1,,粟手原,,33.10269633,131.7700067,5027 1,,0,,,,
5027 2,,粟手原,,33.102613,131.7702373,5027 2,,0,,,,
5028 1,,清太郎,,33.10681261,131.772723,5028 1,,0,,,,
5028 2,,清太郎,,33.1067397,131.7728362,5028 2,,0,,,,
5029 1,,白馬渓,,33.10876245,131.7758893,5029 1,,0,,,,
5029 2,,白馬渓,,33.108599,131.7759526,5029 2,,0,,,,
5030 1,,野田入口,,33.1100457,131.7795223,5030 1,,0,,,,
5030 2,,野田入口,,33.109862,131.7795696,5030 2,,0,,,,
5031 1,,手無地蔵,,33.1114151,131.7833074,5031 1,,0,,,,
5031 2,,手無地蔵,,33.11124565,131.7833886,5031 2,,0,,,,
5032 1,,温井入口,,33.112769,131.7871694,5032 1,,0,,,,
5032 2,,温井入口,,33.1127025,131.7872363,5032 2,,0,,,,
5033 1,,土橋,,33.1145894,131.7919974,5033 1,,0,,,,
5033 2,,土橋,,33.1141766,131.791308,5033 2,,0,,,,
5035 1,,平清水,,33.1173701,131.7950456,5035 1,,0,,,,
5035 2,,平清水,,33.1174546,131.795232,5035 2,,0,,,,
5036 1,,住吉橋,,33.1197972,131.7957766,5036 1,,0,,,,
5036 2,,住吉橋,,33.11949499,131.7957705,5036 2,,0,,,,
5037 1,,辻口,,33.12224477,131.8004866,5037 1,,0,,,,
5037 2,,辻口,,33.1220545,131.7995041,5037 2,,0,,,,
5039 1,,城北,,33.12292811,131.8045696,5039 1,,0,,,,
5039 2,,城北,,33.1225856,131.8033537,5039 2,,0,,,,
5044 1,,城南,,33.1215942,131.8059928,5044 1,,0,,,,
5044 2,,城南,,33.121375,131.8061577,5044 2,,0,,,,
5045 1,,臼杵駅,,33.11869527,131.8072862,5045 1,,0,,,,
5045 2,,臼杵駅,,33.1186766,131.8073016,5045 2,,0,,,,
5048 9,,臼杵港フェリーターミナル,,33.1227779,131.8165695,5048 9,,0,,,,
5101 9,,清流橋,,33.1203526,131.8082472,5101 9,,0,,,,
5102 9,,下り松,,33.1208288,131.8133063,5102 9,,0,,,,
5251 9,,木ケ畑橋,,33.091648,131.735901,5251 9,,0,,,,
5252 9,,勘場,,33.0901022,131.7318958,5252 9,,0,,,,
5253 9,,一ノ瀬,,33.0846921,131.7299937,5253 9,,0,,,,
5254 9,,生の原,,33.0698023,131.7140567,5254 9,,0,,,,
5255 9,,下り松,,33.0668577,131.7112225,5255 9,,0,,,,
5256 9,,池原,,33.064713,131.709473,5256 9,,0,,,,
5257 9,,野津筒井,,33.061317,131.7052822,5257 9,,0,,,,
5258 9,,赤迫,,33.0570835,131.700876,5258 9,,0,,,,
5259 9,,心行院前,,33.05595,131.696167,5259 9,,0,,,,
5260 9,,乙丸橋,,33.0555706,131.6927367,5260 9,,0,,,,
5261 9,,野津北町,,33.046734,131.691803,5261 9,,0,,,,
5262 9,,野津辻,,33.044468,131.693451,5262 9,,0,,,,
5263 2,,野津市,,33.0430392,131.6919021,5263 2,,0,,,,
5263 9,,野津市,,33.0430409,131.6918874,5263 9,,0,,,,
5301 9,,野口,,33.031445,131.688461,5301 9,,0,,,,
5302 9,,西ノ口,,33.0288553,131.6876441,5302 9,,0,,,,
5321 9,,前河内,,33.0231327,131.6871384,5321 9,,0,,,,
5322 9,,原口,,33.020248,131.681137,5322 9,,0,,,,
5323 9,,大久保,,33.018745,131.672836,5323 9,,0,,,,
5324 9,,川平,,33.015649,131.6660328,5324 9,,0,,,,
5325 9,,尾原入口,,33.0142255,131.6659021,5325 9,,0,,,,
5326 9,,栃原,,33.009113,131.66301,5326 9,,0,,,,
5327 9,,花香,,33.004814,131.65593,5327 9,,0,,,,
5328 9,,鼓石,,33.006817,131.647827,5328 9,,0,,,,
5330 9,,東光寺,,33.008808,131.641479,5330 9,,0,,,,
5331 9,,柳井瀬,,33.0099516,131.6367773,5331 9,,0,,,,
5361 1,,辻,,33.1201343,131.7998918,5361 1,,0,,,,
7001 2,,犬飼駅,,33.0784126,131.6368683,7001 2,,0,,,,
7001 9,,犬飼駅,,33.0784047,131.6369513,7001 9,,0,,,,
7002 9,,天神町,,33.0742975,131.6348919,7002 9,,0,,,,
7003 9,,犬飼,,33.0718177,131.6347113,7003 9,,0,,,,
7004 1,,小福手,,33.0686537,131.6348693,7004 1,,0,,,,
7004 2,,小福手,,33.0685874,131.6347613,7004 2,,0,,,,
7005 1,,トンネル口,,33.063145,131.636749,7005 1,,0,,,,
7005 2,,トンネル口,,33.0631619,131.636639,7005 2,,0,,,,
7006 1,,津留,,33.0589325,131.6370867,7006 1,,0,,,,
7006 2,,津留,,33.0589011,131.6369339,7006 2,,0,,,,
7007 9,,発電所入口,,33.054752,131.638748,7007 9,,0,,,,
7008 1,,高松,,33.0496631,131.6418871,7008 1,,0,,,,
7008 2,,高松,,33.0496316,131.6417261,7008 2,,0,,,,
7009 1,,山奥,,33.0455048,131.6414594,7009 1,,0,,,,
7009 2,,山奥,,33.0455706,131.6413353,7009 2,,0,,,,
7010 1,,戸ノ口,,33.0397366,131.6354888,7010 1,,0,,,,
7010 2,,戸ノ口,,33.039794,131.6353412,7010 2,,0,,,,
7011 1,,深野,,33.037399,131.629349,7011 1,,0,,,,
7011 2,,深野,,33.0374968,131.6293289,7011 2,,0,,,,
7012 1,,宮尾入口,,33.0263432,131.6206913,7012 1,,0,,,,
7012 2,,宮尾入口,,33.0263702,131.6205329,7012 2,,0,,,,
7013 1,,菅尾小学校入口,,33.0177322,131.6184646,7013 1,,0,,,,
7013 2,,菅尾小学校入口,,33.017658,131.618317,7013 2,,0,,,,
7014 1,,菅尾駅前,,33.0132814,131.6174648,7014 1,,0,,,,
7014 2,,菅尾駅前,,33.0133151,131.6173052,7014 2,,0,,,,
7016 9,,緑ヶ丘,,33.0118878,131.6208414,7016 9,,0,,,,
7017 1,,菅尾駅前,,33.0146314,131.6181948,7017 1,,0,,,,
7017 2,,菅尾駅前,,33.0145278,131.6179561,7017 2,,0,,,,
7018 1,,亀の甲,,33.010208,131.61644,7018 1,,0,,,,
7018 2,,亀の甲,,33.0101923,131.6162415,7018 2,,0,,,,
7019 1,,金田入口,,33.001408,131.6154649,7019 1,,0,,,,
7019 2,,金田入口,,33.0013855,131.6153308,7019 2,,0,,,,
7020 1,,三重の原,,32.9959697,131.6162145,7020 1,,0,,,,
7020 2,,三重の原,,32.9959876,131.6160173,7020 2,,0,,,,
7021 1,,東営住宅前,,32.9944571,131.6150119,7021 1,,0,,,,
7021 2,,東営住宅前,,32.9945363,131.61493,7021 2,,0,,,,
7022 1,,谷川原,,32.9924074,131.6126837,7022 1,,0,,,,
7022 2,,谷川原,,32.9925007,131.6125925,7022 2,,0,,,,
7023 1,,権現堂,,32.9900161,131.6090049,7023 1,,0,,,,
7023 2,,権現堂,,32.989898,131.609033,7023 2,,0,,,,
7024 1,,下赤嶺東,,32.9880235,131.6034548,7024 1,,0,,,,
7024 2,,下赤嶺東,,32.9881776,131.6035017,7024 2,,0,,,,
7025 1,,市の坪,,32.9862059,131.6009494,7025 1,,0,,,,
7025 2,,市の坪,,32.9862633,131.6008126,7025 2,,0,,,,
7026 1,,今市,,32.984097,131.596191,7026 1,,0,,,,
7026 2,,今市,,32.9842162,131.5961897,7026 2,,0,,,,
7027 1,,市場六区,,32.982891,131.588791,7027 1,,0,,,,
7027 2,,市場六区,,32.9829652,131.5887052,7027 2,,0,,,,
7028 1,,ロータリートキハ前,,32.9807107,131.5863397,7028 1,,0,,,,
7028 2,,ロータリートキハ前,,32.9808941,131.5863649,7028 2,,0,,,,
7031 9,,犬飼公民館,,33.0654187,131.6324254,7031 9,,0,,,,
7032 9,,神宿橋,,33.063999,131.618362,7032 9,,0,,,,
7033 9,,名本,,33.0620753,131.6131525,7033 9,,0,,,,
7034 9,,両村橋,,33.0623216,131.6081698,7034 9,,0,,,,
7035 9,,柴北,,33.0665736,131.6035938,7035 9,,0,,,,
7036 9,,山田,,33.0708626,131.5969274,7036 9,,0,,,,
7037 9,,新飼,,33.0713002,131.5904373,7037 9,,0,,,,
7038 9,,黒松,,33.0692001,131.5863481,7038 9,,0,,,,
7039 9,,千束,,33.0634624,131.5796523,7039 9,,0,,,,
7040 9,,栗ヶ畑入口,,33.0642893,131.5739979,7040 9,,0,,,,
7041 9,,落合,,33.0660869,131.570517,7041 9,,0,,,,
7042 1,,山内,,33.0679588,131.5654906,7042 1,,0,,,,
7042 9,,山内,,33.0680307,131.5655094,7042 9,,0,,,,
7043 9,,長尾野入口,,33.063442,131.560654,7043 9,,0,,,,
7044 9,,河面橋,,33.0686207,131.5519253,7044 9,,0,,,,
7045 9,,中山,,33.0695127,131.5484263,7045 9,,0,,,,
7046 1,,河面,,33.069483,131.5452802,7046 1,,0,,,,
7046 9,,河面,,33.0695136,131.5452058,7046 9,,0,,,,
7051 9,,竹の下,,33.06863,131.571777,7051 9,,0,,,,
7052 9,,神社前,,33.0732893,131.5686993,7052 9,,0,,,,
7053 9,,栗の木,,33.078159,131.568497,7053 9,,0,,,,
7060 9,,三重町駅,,32.9834288,131.5844123,7060 9,,0,,,,
7061 1,,駅前通り,,32.9827178,131.5844092,7061 1,,0,,,,
7061 2,,駅前通り,,32.9827189,131.5842926,7061 2,,0,,,,
7062 1,,大野竹田バス本社,,32.9844204,131.5860385,7062 1,,0,,,,
7062 2,,大野竹田バス本社,,32.9844193,131.5860197,7062 2,,0,,,,
7063 9,,グランド前,,32.988605,131.584579,7063 9,,0,,,,
7064 9,,原山,,32.990627,131.583603,7064 9,,0,,,,
7065 9,,加良目,,32.9922412,131.5806475,7065 9,,0,,,,
7066 9,,長迫,,32.9954521,131.5809109,7066 9,,0,,,,
7067 9,,百枝入口,,33.00024,131.5822154,7067 9,,0,,,,
7068 9,,上田原,,33.0097869,131.5837014,7068 9,,0,,,,
7069 9,,下津留,,33.0144962,131.58477,7069 9,,0,,,,
7070 9,,原田,,33.0199461,131.5837496,7070 9,,0,,,,
7071 9,,大木,,33.025715,131.588989,7071 9,,0,,,,
7072 9,,高畑,,33.0282904,131.5927022,7072 9,,0,,,,
7073 9,,漆生,,33.0336924,131.5939309,7073 9,,0,,,,
7074 9,,千歳小学校前,,33.038647,131.596603,7074 9,,0,,,,
7075 9,,新殿,,33.042698,131.596573,7075 9,,0,,,,
7076 9,,栖木野,,33.0456641,131.5970087,7076 9,,0,,,,
7081 9,,法泉庵,,33.0004285,131.5771224,7081 9,,0,,,,
7082 9,,堂の前,,33.001335,131.574814,7082 9,,0,,,,
7083 9,,西原,,33.0032017,131.572503,7083 9,,0,,,,
7084 9,,辰の口,,33.0002652,131.5676006,7084 9,,0,,,,
7085 9,,平,,32.9982267,131.5606277,7085 9,,0,,,,
7101 1,,ロータリー,,32.9791675,131.5848255,7101 1,,0,,,,
7101 2,,ロータリー,,32.9791265,131.5849188,7101 2,,0,,,,
7102 1,,監督署前,,32.9776695,131.5836542,7102 1,,0,,,,
7102 2,,監督署前,,32.9774703,131.5836676,7102 2,,0,,,,
7103 9,,市場,,32.9762596,131.5803709,7103 9,,0,,,,
7104 9,,新道,,32.9759566,131.5765006,7104 9,,0,,,,
7105 9,,紫雲荘,,32.9748768,131.5729853,7105 9,,0,,,,
7106 9,,安養寺,,32.9738587,131.5707326,7106 9,,0,,,,
7107 1,,向田団地前,,32.9741816,131.5681151,7107 1,,0,,,,
7107 9,,向田団地前,,32.9742468,131.5681553,7107 9,,0,,,,
7108 9,,玉田,,32.9750333,131.5632058,7108 9,,0,,,,
7109 9,,四ッ割,,32.9789506,131.5557477,7109 9,,0,,,,
7110 9,,戸の口,,32.977371,131.548065,7110 9,,0,,,,
7111 9,,岩戸,,32.981785,131.548187,7111 9,,0,,,,
7112 9,,下辻,,32.9812332,131.537649,7112 9,,0,,,,
7113 9,,臼尾,,32.980267,131.532562,7113 9,,0,,,,
7114 9,,駅下住宅前,,32.9743914,131.5281819,7114 9,,0,,,,
7115 9,,清川駅,,32.973201,131.5225316,7115 9,,0,,,,
7116 9,,長迫,,32.9710626,131.516703,7116 9,,0,,,,
7117 9,,下市,,32.96764,131.516251,7117 9,,0,,,,
7118 9,,清川小学校前,,32.9670369,131.5139622,7118 9,,0,,,,
7119 9,,砂田,,32.9663695,131.5121795,7119 9,,0,,,,
7120 9,,天神,,32.9679404,131.5103325,7120 9,,0,,,,
7121 9,,徳部,,32.9718169,131.5035102,7121 9,,0,,,,
7122 9,,野尻,,32.9713159,131.4984615,7122 9,,0,,,,
7123 9,,井上,,32.9688385,131.495006,7123 9,,0,,,,
7124 9,,大福寺前,,32.968938,131.48991,7124 9,,0,,,,
7125 9,,水道口,,32.9679495,131.4858074,7125 9,,0,,,,
7126 9,,岩鼻,,32.9681157,131.4819735,7126 9,,0,,,,
7127 9,,馬場東,,32.9694259,131.4806903,7127 9,,0,,,,
7128 9,,緒方駅前,,32.9716119,131.4767416,7128 9,,0,,,,
7129 9,,緒方支所前,,32.970501,131.474091,7129 9,,0,,,,
7130 9,,市民病院,,32.969682,131.4756111,7130 9,,0,,,,
7141 9,,大野橋,,32.984112,131.526611,7141 9,,0,,,,
7142 9,,矢田,,32.994286,131.514557,7142 9,,0,,,,
7143 9,,境橋,,32.998705,131.511093,7143 9,,0,,,,
7144 9,,中原,,33.0074045,131.5116036,7144 9,,0,,,,
7145 9,,堤田,,33.0188421,131.5145314,7145 9,,0,,,,
7146 9,,田代,,33.0261241,131.5141674,7146 9,,0,,,,
7147 9,,川北,,33.030078,131.5093815,7147 9,,0,,,,
7148 1,,今川,,33.0325145,131.5049823,7148 1,,0,,,,
7148 2,,今川,,33.0324178,131.5048898,7148 2,,0,,,,
7149 1,,道の駅おおの,,33.0364242,131.5025956,7149 1,,0,,,,
7149 2,,道の駅おおの,,33.036409,131.5023917,7149 2,,0,,,,
7171 9,,三重総合高校前,,32.9750806,131.5811176,7171 9,,0,,,,
7221 1,,ごりょう神社前,,32.9719527,131.5824404,7221 1,,0,,,,
7221 2,,ごりょう神社前,,32.9720118,131.5823518,7221 2,,0,,,,
7222 1,,鬼塚,,32.9688426,131.5820706,7222 1,,0,,,,
7222 2,,鬼塚,,32.968864,131.58197,7222 2,,0,,,,
7223 1,,浄運寺前,,32.9638142,131.5822937,7223 1,,0,,,,
7223 2,,浄運寺前,,32.963848,131.582169,7223 2,,0,,,,
7224 9,,内山,,32.9588221,131.5841611,7224 9,,0,,,,
7225 9,,内山観音前,,32.9562606,131.5839015,7225 9,,0,,,,
7241 9,,三重トキハ前,,32.978916,131.5865302,7241 9,,0,,,,
7242 9,,市役所前,,32.97765,131.584885,7242 9,,0,,,,
7243 9,,本町,,32.979454,131.582962,7243 9,,0,,,,
7244 9,,長沢,,32.9798835,131.5817437,7244 9,,0,,,,
7245 9,,三重幼稚園前,,32.979218,131.579437,7245 9,,0,,,,
7246 9,,市原団地前,,32.979317,131.576828,7246 9,,0,,,,
7247 9,,市原,,32.978367,131.575562,7247 9,,0,,,,
7248 9,,改善センター入口,,32.976501,131.573578,7248 9,,0,,,,
7249 9,,紫雲会,,32.9727314,131.5724973,7249 9,,0,,,,
7251 9,,三重中学校,,32.9766228,131.5904417,7251 9,,0,,,,
7252 9,,重政,,32.975662,131.592163,7252 9,,0,,,,
7253 9,,みつば台,,32.976588,131.5973116,7253 9,,0,,,,
7254 9,,九州藤華看護専門学校,,32.974247,131.59996,7254 9,,0,,,,
7255 9,,黒枝,,32.9764995,131.6004645,7255 9,,0,,,,
7256 9,,大鷺,,32.978706,131.597824,7256 9,,0,,,,
7257 9,,内田,,32.980774,131.594009,7257 9,,0,,,,
8001 1,,町口,,33.0705337,131.6329466,8001 1,,0,,,,
8001 2,,町口,,33.0706933,131.6330056,8001 2,,0,,,,
8002 9,,犬飼公民館前,,33.0703671,131.6289989,8002 9,,0,,,,
8003 1,,下の原,,33.0640056,131.6247656,8003 1,,0,,,,
8003 2,,下の原,,33.0641451,131.6247253,8003 2,,0,,,,
8004 1,,高添,,33.0537893,131.6185887,8004 1,,0,,,,
8004 2,,高添,,33.0543041,131.618535,8004 2,,0,,,,
8005 1,,岩下,,33.0507877,131.6133512,8005 1,,0,,,,
8005 2,,岩下,,33.0509035,131.6131648,8005 2,,0,,,,
8006 9,,大迫,,33.048611,131.602203,8006 9,,0,,,,
8018 1,,田中,,33.0390069,131.5011263,8018 1,,0,,,,
8018 2,,田中,,33.0391137,131.5011263,8018 2,,0,,,,
8019 1,,西田中,,33.0401713,131.4965531,8019 1,,0,,,,
8019 2,,西田中,,33.0402782,131.4965437,8019 2,,0,,,,
8020 9,,福祉センター前,,33.0384337,131.4922953,8020 9,,0,,,,
8021 1,,代の原,,33.0361326,131.4862518,8021 1,,0,,,,
8021 2,,代の原,,33.0361866,131.4861459,8021 2,,0,,,,
8022 1,,下津留,,33.0283778,131.4849657,8022 1,,0,,,,
8022 2,,下津留,,33.0283891,131.4848317,8022 2,,0,,,,
8023 1,,住吉,,33.0266652,131.4850101,8023 1,,0,,,,
8023 2,,住吉,,33.0266674,131.4849162,8023 2,,0,,,,
8024 1,,養老,,33.0235834,131.4840434,8024 1,,0,,,,
8024 2,,養老,,33.023598,131.4839032,8024 2,,0,,,,
8025 1,,戸崎,,33.0189862,131.480527,8025 1,,0,,,,
8025 2,,戸崎,,33.0190255,131.4804184,8025 2,,0,,,,
8026 9,,小畑下,,33.0139106,131.4785896,8026 9,,0,,,,
8027 1,,滝の上,,33.0098415,131.470091,8027 1,,0,,,,
8027 2,,滝の上,,33.0099843,131.4700306,8027 2,,0,,,,
8028 9,,下平井,,33.005016,131.460922,8028 9,,0,,,,
8029 1,,平井,,33.0031092,131.4558718,8029 1,,0,,,,
8029 2,,平井,,33.003216,131.455841,8029 2,,0,,,,
8031 1,,大恩寺前,,33.0042716,131.4406003,8031 1,,0,,,,
8031 2,,大恩寺前,,33.0041557,131.441071,8031 2,,0,,,,
8032 1,,朝地駅前,,33.0054283,131.4328817,8032 1,,0,,,,
8032 2,,朝地駅前,,33.0055093,131.4329045,8032 2,,0,,,,
8033 9,,源勝寺前,,33.0030285,131.4256114,8033 9,,0,,,,
8034 1,,下三宅,,32.9978321,131.4173126,8034 1,,0,,,,
8034 2,,下三宅,,32.9979338,131.417271,8034 2,,0,,,,
8035 1,,三宅,,32.9931387,131.4123308,8035 1,,0,,,,
8035 2,,三宅,,32.9932354,131.4121779,8035 2,,0,,,,
8036 9,,踏切下,,32.988194,131.4117722,8036 9,,0,,,,
8037 9,,濁淵,,32.9817402,131.4080606,8037 9,,0,,,,
8038 9,,濁淵橋,,32.9790297,131.4030877,8038 9,,0,,,,
8040 1,,竹田市役所,,32.973306,131.397166,8040 1,,0,,,,
8041 1,,竹田温泉花水月,,32.9712856,131.391773,8041 1,,0,,,,
8041 2,,竹田温泉花水月,,32.971388,131.3917449,8041 2,,0,,,,
8042 1,,竹田駅前,,32.97087,131.3901659,8042 1,,0,,,,
8042 2,,竹田駅前,,32.9708795,131.390174,8042 2,,0,,,,
8043 1,,古町,,32.9692095,131.390992,8043 1,,0,,,,
8043 2,,古町,,32.969088,131.3910041,8043 2,,0,,,,
8044 1,,竹田本町,,32.9674635,131.3927029,8044 1,,0,,,,
8044 2,,竹田本町,,32.9674492,131.392781,8044 2,,0,,,,
8045 1,,山川,,32.9658406,131.3920301,8045 1,,0,,,,
8045 2,,山川,,32.9655975,131.3916628,8045 2,,0,,,,
8046 1,,山手,,32.9644732,131.3874701,8046 1,,0,,,,
8046 2,,山手,,32.9643146,131.387462,8046 2,,0,,,,
8047 1,,鳥越,,32.9626532,131.3854566,8047 1,,0,,,,
8047 2,,鳥越,,32.9624709,131.3855103,8047 2,,0,,,,
8048 1,,竹田営業所,,32.959808,131.382355,8048 1,,0,,,,
8048 2,,竹田営業所,,32.959808,131.382355,8048 2,,0,,,,
8049 1,,道の駅あさじ,,33.0028538,131.4485997,8049 1,,0,,,,
8049 2,,道の駅あさじ,,33.0029753,131.4490805,8049 2,,0,,,,
8050 9,,グランツたけた,,32.9598156,131.3840392,8050 9,,0,,,,
8051 9,,城北町,,32.9723476,131.4031605,8051 9,,0,,,,
8052 9,,営林署前,,32.9707602,131.3977286,8052 9,,0,,,,
8101 9,,高校入口,,32.9667996,131.3977883,8101 9,,0,,,,
8102 9,,岡城入口,,32.9655215,131.3997309,8102 9,,0,,,,
8103 9,,滑瀬,,32.9649073,131.4059209,8103 9,,0,,,,
8104 9,,下原,,32.9688125,131.4132717,8104 9,,0,,,,
8105 9,,柄柄,,32.968257,131.4222779,8105 9,,0,,,,
8106 9,,草深野,,32.9694712,131.4319092,8106 9,,0,,,,
8107 9,,大久保,,32.9718618,131.4378033,8107 9,,0,,,,
8108 9,,上自在,,32.9705882,131.4547503,8108 9,,0,,,,
8109 9,,入楽寺前,,32.9722442,131.4580559,8109 9,,0,,,,
8110 9,,軸丸入口,,32.9738178,131.4619887,8110 9,,0,,,,
8111 9,,小野入口,,32.9739928,131.4653567,8111 9,,0,,,,
8112 9,,下自在,,32.975368,131.470993,8112 9,,0,,,,
8113 9,,支所入口,,32.9729387,131.4751411,8113 9,,0,,,,
8114 9,,岡城,,32.965832,131.402496,8114 9,,0,,,,
8165 9,,原尻の滝入口,,32.9661674,131.4499287,8165 9,,0,,,,
8166 9,,原尻の滝,,32.9649558,131.4504059,8166 9,,0,,,,
8301 9,,常盤橋,,32.956875,131.38002,8301 9,,0,,,,
8302 9,,堀切,,32.9538157,131.3774591,8302 9,,0,,,,
8303 1,,玉来,,32.9527431,131.3754037,8303 1,,0,,,,
8303 2,,玉来,,32.9526711,131.3754291,8303 2,,0,,,,
8304 9,,西玉来,,32.9510257,131.3720088,8304 9,,0,,,,
8305 9,,南部小学校前,,32.9512333,131.3685831,8305 9,,0,,,,
8306 9,,君が園,,32.9531746,131.3633747,8306 9,,0,,,,
8307 1,,松本,,32.9520688,131.3586344,8307 1,,0,,,,
8307 2,,松本,,32.9519945,131.3586451,8307 2,,0,,,,
8308 9,,穴井迫,,32.9521909,131.3530634,8308 9,,0,,,,
8309 9,,二本松,,32.947865,131.337387,8309 9,,0,,,,
8310 9,,三迫,,32.9489978,131.3325918,8310 9,,0,,,,
8311 1,,戸上,,32.9517509,131.31432,8311 1,,0,,,,
8311 2,,戸上,,32.9517599,131.3143523,8311 2,,0,,,,
8312 1,,畝割,,32.9532015,131.3074894,8312 1,,0,,,,
8312 2,,畝割,,32.9531025,131.3074813,8312 2,,0,,,,
8313 9,,石井,,32.9549974,131.2967825,8313 9,,0,,,,
8314 9,,下菅生,,32.9562235,131.289108,8314 9,,0,,,,
8315 9,,菅生小学校前,,32.9563334,131.2857373,8315 9,,0,,,,
8316 9,,上菅生,,32.9565336,131.2831049,8316 9,,0,,,,
8317 9,,甘橡,,32.955929,131.278503,8317 9,,0,,,,
8318 9,,塚山,,32.9523791,131.266754,8318 9,,0,,,,
8319 9,,二柱神社前,,32.951645,131.260345,8319 9,,0,,,,
8320 9,,原山,,32.951363,131.256607,8320 9,,0,,,,
8321 9,,甘橡,,32.9570644,131.2763263,8321 9,,0,,,,
8322 9,,平井,,32.9587319,131.2694347,8322 9,,0,,,,
8323 2,,田代,,32.9611437,131.254302,8323 2,,0,,,,
8323 9,,田代,,32.9612225,131.2543151,8323 9,,0,,,,
8325 1,,扇森稲荷神社,,32.955235,131.375046,8325 1,,0,,,,
8381 9,,下木,,32.970715,131.389236,8381 9,,0,,,,
8382 9,,三砂,,32.9700207,131.3874727,8382 9,,0,,,,
8383 9,,上三砂,,32.971535,131.3862692,8383 9,,0,,,,
8384 1,,平村,,32.9742155,131.3839915,8384 1,,0,,,,
8384 2,,平村,,32.9741714,131.3838789,8384 2,,0,,,,
8385 1,,竹田中学校前,,32.9735722,131.3792949,8385 1,,0,,,,
8385 2,,竹田中学校前,,32.9736487,131.3799762,8385 2,,0,,,,
8386 9,,鹿口,,32.9714477,131.3723515,8386 9,,0,,,,
8387 1,,中鹿口,,32.9727023,131.3696027,8387 1,,0,,,,
8387 2,,中鹿口,,32.9725717,131.3696268,8387 2,,0,,,,
8388 9,,上鹿口,,32.973274,131.3645058,8388 9,,0,,,,
8389 9,,平田,,32.974518,131.356979,8389 9,,0,,,,
8390 9,,高平,,32.97578,131.354172,8390 9,,0,,,,
8391 1,,十一,,32.9785533,131.3508696,8391 1,,0,,,,
8391 2,,十一,,32.9784813,131.3507569,8391 2,,0,,,,
8392 9,,紙漉,,32.9824765,131.3464055,8392 9,,0,,,,
8393 9,,米納,,32.983929,131.342773,8393 9,,0,,,,
8394 9,,地蔵原,,32.9873782,131.3392734,8394 9,,0,,,,
8395 9,,城原,,32.9908826,131.3374323,8395 9,,0,,,,
8396 9,,轟,,32.9936186,131.3341978,8396 9,,0,,,,
8397 9,,鍛治屋,,32.9958782,131.3312323,8397 9,,0,,,,
8398 9,,神田,,32.999062,131.322296,8398 9,,0,,,,
8399 9,,笹川,,33.0028347,131.3176187,8399 9,,0,,,,
8400 9,,浦久保入口,,33.006493,131.30719,8400 9,,0,,,,
8401 9,,小川,,33.011135,131.304337,8401 9,,0,,,,
8402 9,,桜馬場,,33.015888,131.297943,8402 9,,0,,,,
8403 9,,久住,,33.0181512,131.2961103,8403 9,,0,,,,
8420 9,,久住支所,,33.0207525,131.294051,8420 9,,0,,,,
8441 9,,久住支所前,,33.0200496,131.2947308,8441 9,,0,,,,
8442 9,,新町,,33.0211421,131.297081,8442 9,,0,,,,
8443 9,,正法寺前,,33.023994,131.298752,8443 9,,0,,,,
8444 9,,黒岩,,33.029472,131.301682,8444 9,,0,,,,
8445 9,,境川,,33.0346114,131.3068779,8445 9,,0,,,,
8446 9,,小倉峠,,33.041562,131.3130142,8446 9,,0,,,,
8447 9,,柚の木入口,,33.0507479,131.3240595,8447 9,,0,,,,
8448 9,,久住高原農業高校前,,33.0541119,131.3253626,8448 9,,0,,,,
8449 9,,都野局前,,33.056227,131.3274587,8449 9,,0,,,,
8450 9,,農協支所前,,33.057362,131.328568,8450 9,,0,,,,
8451 9,,都野,,33.057911,131.331314,8451 9,,0,,,,
8452 9,,馬場入口,,33.0601021,131.3367533,8452 9,,0,,,,
8453 9,,須崎,,33.0628416,131.3393318,8453 9,,0,,,,
8454 9,,三船,,33.0669906,131.3440858,8454 9,,0,,,,
8455 9,,倉橋,,33.0679459,131.3507067,8455 9,,0,,,,
8456 9,,上新田,,33.0641882,131.355745,8456 9,,0,,,,
8457 9,,新田,,33.0644763,131.3598692,8457 9,,0,,,,
8458 9,,桑畑,,33.0659178,131.3672763,8458 9,,0,,,,
8459 9,,くず淵温泉,,33.067173,131.371994,8459 9,,0,,,,
8460 9,,クアパーク長湯,,33.067482,131.374542,8460 9,,0,,,,
8461 9,,山脇,,33.068588,131.379257,8461 9,,0,,,,
8462 9,,長湯,,33.070388,131.3827922,8462 9,,0,,,,
8463 1,,道の駅長湯温泉,,33.0717306,131.383461,8463 1,,0,,,,
8463 2,,道の駅長湯温泉,,33.0716249,131.3834221,8463 2,,0,,,,
8464 9,,芋の迫,,33.074973,131.3856122,8464 9,,0,,,,
8465 2,,直入支所前,,33.0783235,131.3849762,8465 2,,0,,,,
8465 9,,直入支所前,,33.0783268,131.3849333,8465 9,,0,,,,
