stop_id,stop_code,stop_name,stop_desc,stop_lat,stop_lon,zone_id,stop_url,location_type,parent_station,stop_timezone,wheelchair_boarding,platform_code
1001 2,,高城駅前,,33.24306263,131.6544099,1001 2,,0,,,,
101 1,,舞鶴橋,,33.2412257,131.6234837,101 1,,0,,,,
1011 1,,仲西橋,,33.2413513,131.6608155,1011 1,,0,,,,
1011 2,,仲西橋,,33.24131293,131.6606094,1011 2,,0,,,,
1012 1,,池の平,,33.2364666,131.6613264,1012 1,,0,,,,
1012 2,,池の平,,33.2365244,131.6611475,1012 2,,0,,,,
1013 1,,猪野団地入口,,33.2317228,131.6611353,1013 1,,0,,,,
1013 2,,猪野団地入口,,33.2325588,131.6611258,1013 2,,0,,,,
1013 3,,猪野団地入口,,33.2320368,131.6606106,1013 3,,0,,,,
1014 1,,法勝台入口,,33.2287521,131.6603675,1014 1,,0,,,,
1014 2,,法勝台入口,,33.2293809,131.6602767,1014 2,,0,,,,
1015 1,,天然塚東,,33.2261455,131.6596404,1015 1,,0,,,,
1015 2,,天然塚東,,33.2258241,131.6592997,1015 2,,0,,,,
1016 2,,法勝台３丁目,,33.2288789,131.6611553,1016 2,,0,,,,
1017 1,,法勝台公園前,,33.2274433,131.6621928,1017 1,,0,,,,
1018 2,,法勝台１丁目,,33.22636452,131.6601435,1018 2,,0,,,,
102 1,,舞鶴高校前,,33.2431404,131.6228497,102 1,,0,,,,
1021 1,,明野西町,,33.2282073,131.6466972,1021 1,,0,,,,
1021 2,,明野西町,,33.2279861,131.6465836,1021 2,,0,,,,
1022 1,,明野緑町,,33.2291368,131.6482943,1022 1,,0,,,,
1022 2,,明野緑町,,33.2292524,131.6481277,1022 2,,0,,,,
1023 1,,奥山公園前,,33.229156,131.6504375,1023 1,,0,,,,
1023 2,,奥山公園前,,33.2292669,131.6504295,1023 2,,0,,,,
1024 1,,明野北町,,33.22915,131.6526073,1024 1,,0,,,,
1024 2,,明野北町,,33.2292533,131.6526008,1024 2,,0,,,,
1025 1,,明野北小学校前,,33.2297516,131.6543704,1025 1,,0,,,,
1025 2,,明野北小学校前,,33.23043066,131.6548271,1025 2,,0,,,,
1026 1,,紅陽台,,33.2316527,131.657738,1026 1,,0,,,,
1026 2,,紅陽台,,33.2317761,131.6576657,1026 2,,0,,,,
103 1,,競技場前,,33.2458839,131.6220029,103 1,,0,,,,
1031 5,,明野南町⑤,明野西小方面,33.22522,131.6476573,1031 5,,0,,,,
1032 1,,明野西小前,,33.2217408,131.6483353,1032 1,,0,,,,
1032 2,,明野西小前,,33.2219856,131.6480419,1032 2,,0,,,,
1033 1,,明野中学校,,33.2191151,131.6514445,1033 1,,0,,,,
1033 2,,明野中学校,,33.2192151,131.6512612,1033 2,,0,,,,
1034 1,,明野中学校,,33.2196818,131.6521278,1034 1,,0,,,,
1035 9,,ボンエルフ前,,33.2176834,131.6528137,1035 9,,0,,,,
1036 1,,明野高尾一丁目,,33.2159982,131.6512581,1036 1,,0,,,,
1036 2,,明野高尾一丁目,,33.216018,131.651149,1036 2,,0,,,,
1037 1,,高尾山公園入口,,33.2149279,131.6565144,1037 1,,0,,,,
1037 2,,高尾山公園入口,,33.214669,131.6565837,1037 2,,0,,,,
1038 1,,明野東口,,33.2136549,131.6586458,1038 1,,0,,,,
1038 2,,明野東口,,33.2139017,131.6587742,1038 2,,0,,,,
1039 2,,文化体育センター前,,33.2154182,131.6588323,1039 2,,0,,,,
104 1,,大津町一丁目,,33.2479061,131.6229854,104 1,,0,,,,
1040 1,,さつき町,,33.2173431,131.6588217,1040 1,,0,,,,
1040 2,,さつき町,,33.2178377,131.6589756,1040 2,,0,,,,
1041 1,,東小入口,,33.2196113,131.6590707,1041 1,,0,,,,
1041 2,,東小入口,,33.2196908,131.6589228,1041 2,,0,,,,
1042 1,,旭町,,33.2229956,131.6590986,1042 1,,0,,,,
1042 2,,旭町,,33.2229986,131.6592055,1042 2,,0,,,,
105 1,,西新地入口,,33.2498573,131.6225148,105 1,,0,,,,
1051 1,,城東中学校前,,33.2399494,131.6468968,1051 1,,0,,,,
1051 2,,城東中学校前,,33.2406526,131.6466048,1051 2,,0,,,,
1052 1,,東原,,33.234914,131.6503519,1052 1,,0,,,,
1052 2,,東原,,33.2347456,131.6498346,1052 2,,0,,,,
1053 1,,大分高専,,33.2326634,131.652061,1053 1,,0,,,,
1053 2,,大分高専,,33.2326079,131.6518174,1053 2,,0,,,,
1054 1,,明野北町,,33.2298707,131.6520524,1054 1,,0,,,,
1054 2,,明野北町,,33.2300068,131.6518456,1054 2,,0,,,,
1055 1,,明野元町,,33.2264741,131.6520191,1055 1,,0,,,,
1055 2,,明野元町,,33.2264466,131.6517651,1055 2,,0,,,,
1056 1,,アクロス前,,33.2230072,131.6520877,1056 1,,0,,,,
1056 2,,アクロス前,,33.2235446,131.6517845,1056 2,,0,,,,
1057 1,,明野中町,,33.221426,131.6529639,1057 1,,0,,,,
1057 2,,明野中町,,33.2211693,131.6528528,1057 2,,0,,,,
1058 1,,明野中央病院前,,33.2201816,131.6567701,1058 1,,0,,,,
1058 2,,明野中央病院前,,33.2200683,131.6572161,1058 2,,0,,,,
106 1,,西新地二丁目,,33.2507115,131.6248321,106 1,,0,,,,
107 1,,大洲運動公園前,,33.2494434,131.6274773,107 1,,0,,,,
108 1,,大空団地,,33.2485021,131.6270046,108 1,,0,,,,
109 1,,東津留,,33.2408506,131.6288688,109 1,,0,,,,
11 1,,中央通り①,,33.2367678,131.6074961,11 1,,0,,,,
110 1,,津留小学校前,,33.2393929,131.630216,110 1,,0,,,,
1101 1,,米良バイパス入口,,33.2305359,131.6351576,1101 1,,0,,,,
1101 2,,米良バイパス入口,,33.2301687,131.6354327,1101 2,,0,,,,
1102 1,,下郡南,,33.2249336,131.6350918,1102 1,,0,,,,
1102 2,,下郡南,,33.2246934,131.6352956,1102 2,,0,,,,
1103 1,,長谷町,,33.2204051,131.6356167,1103 1,,0,,,,
1103 2,,長谷町,,33.220678,131.6356225,1103 2,,0,,,,
1104 1,,藤の台入口,,33.2178402,131.6375099,1104 1,,0,,,,
1104 2,,藤の台入口,,33.2179379,131.6375505,1104 2,,0,,,,
1105 1,,藤の台,,33.21451545,131.6406457,1105 1,,0,,,,
1105 2,,藤の台,,33.215013,131.640836,1105 2,,0,,,,
1106 1,,ゆめが丘,,33.212399,131.6433693,1106 1,,0,,,,
1106 2,,ゆめが丘,,33.2128853,131.6429841,1106 2,,0,,,,
1107 1,,教育会館入口,,33.2107976,131.6447485,1107 1,,0,,,,
1107 2,,教育会館入口,,33.2108105,131.64487,1107 2,,0,,,,
1108 1,,パークシティ明野西,,33.2091361,131.6460589,1108 1,,0,,,,
1108 2,,パークシティ明野西,,33.2092994,131.6462512,1108 2,,0,,,,
1109 1,,パークシティ明野中央,,33.2097406,131.6478943,1109 1,,0,,,,
1109 2,,パークシティ明野中央,,33.2098302,131.6478486,1109 2,,0,,,,
111 1,,古ヶ鶴一丁目,,33.2395466,131.6322241,111 1,,0,,,,
1110 1,,パークシティ明野ＳＣ,,33.2103951,131.6493514,1110 1,,0,,,,
1110 2,,パークシティ明野ＳＣ,,33.2105431,131.6493574,1110 2,,0,,,,
1111 1,,大分高校前,,33.2133624,131.6507166,1111 1,,0,,,,
1112 1,,情報科学高校入口,,33.2053643,131.6471017,1112 1,,0,,,,
1112 2,,情報科学高校入口,,33.2048457,131.6465741,1112 2,,0,,,,
1113 1,,情報科学高校,,33.2037596,131.6476203,1113 1,,0,,,,
1114 1,,公園西インター入口,,33.1954475,131.6471481,1114 1,,0,,,,
1114 2,,公園西インター入口,,33.1951232,131.6469144,1114 2,,0,,,,
1115 1,,運転免許センター,,33.1891205,131.6482134,1115 1,,0,,,,
1115 2,,運転免許センター,,33.1892397,131.6479705,1115 2,,0,,,,
1116 1,,パークプレイス大分,,33.1958612,131.658074,1116 1,,0,,,,
1116 2,,パークプレイス大分,,33.1958537,131.6580763,1116 2,,0,,,,
1117 1,,パークプレイス入口,,33.1949902,131.6599999,1117 1,,0,,,,
1117 2,,パークプレイス入口,,33.1944348,131.6599914,1117 2,,0,,,,
1118 1,,公園通り中央,,33.1896722,131.6575216,1118 1,,0,,,,
1119 1,,公園通り東,,33.1884742,131.6594318,1119 1,,0,,,,
112 1,,古ヶ鶴公民館入口,,33.2379173,131.6327508,112 1,,0,,,,
1120 1,,大分スポーツ公園東,,33.2027103,131.6608445,1120 1,,0,,,,
1120 2,,大分スポーツ公園東,,33.20311702,131.6609445,1120 2,,0,,,,
1121 1,,高尾水分神社前,,33.2079498,131.6605922,1121 1,,0,,,,
1121 2,,高尾水分神社前,,33.2078158,131.6607872,1121 2,,0,,,,
1122 1,,江ゴ,,33.2118709,131.6586855,1122 1,,0,,,,
1122 2,,江ゴ,,33.2118312,131.6588359,1122 2,,0,,,,
1123 9,,京が丘コスモ公園,,33.1761684,131.649094,1123 9,,0,,,,
1124 9,,京が丘センターハウス,,33.1751013,131.65204,1124 9,,0,,,,
1125 9,,京が丘ペガサス公園,,33.1730876,131.6486549,1125 9,,0,,,,
1126 1,,浄雲寺,,33.1767852,131.6601458,1126 1,,0,,,,
1126 2,,浄雲寺,,33.1770268,131.659778,1126 2,,0,,,,
1128 9,,京が丘南４丁目,,33.1740239,131.6445726,1128 9,,0,,,,
113 1,,古ヶ鶴二丁目,,33.2368371,131.6320092,113 1,,0,,,,
1131 9,,変電所正門前,,33.2288318,131.6379269,1131 9,,0,,,,
1132 9,,下郡東,,33.2252771,131.6396804,1132 9,,0,,,,
1133 9,,石鎚山前,,33.2228927,131.6386832,1133 9,,0,,,,
1134 9,,だいかく病院前,,33.2209815,131.6378538,1134 9,,0,,,,
1135 9,,長谷町,,33.2204782,131.6366047,1135 9,,0,,,,
1136 9,,市営団地入口,,33.2177275,131.6341039,1136 9,,0,,,,
1137 1,,滝尾小学校前,,33.2143582,131.6321226,1137 1,,0,,,,
1137 2,,滝尾小学校前,,33.2151184,131.6325528,1137 2,,0,,,,
1138 9,,滝尾小学校入口,,33.2133083,131.6312126,1138 9,,0,,,,
1139 9,,上片島,,33.2107573,131.6327026,1139 9,,0,,,,
114 1,,岩田町三丁目,,33.2364483,131.6302328,114 1,,0,,,,
1140 9,,滝尾保養院前,,33.2067787,131.6361652,1140 9,,0,,,,
1141 9,,米良入口,,33.2042337,131.6378467,1141 9,,0,,,,
1142 1,,米良,,33.2012486,131.6390676,1142 1,,0,,,,
1142 2,,米良,,33.2012474,131.6390904,1142 2,,0,,,,
115 1,,岩田町二丁目,,33.2359828,131.6281214,115 1,,0,,,,
1151 1,,東元町,,33.228479,131.6190029,1151 1,,0,,,,
1151 2,,東元町,,33.2284866,131.6187159,1151 2,,0,,,,
1152 1,,元町,,33.2226481,131.6184449,1152 1,,0,,,,
1152 2,,元町,,33.2227104,131.618286,1152 2,,0,,,,
1153 1,,薬師堂前,,33.220331,131.6166179,1153 1,,0,,,,
1153 2,,薬師堂前,,33.2205028,131.6165683,1153 2,,0,,,,
1154 1,,岩屋寺,,33.2173403,131.6136656,1154 1,,0,,,,
1154 2,,岩屋寺,,33.2185232,131.6146325,1154 2,,0,,,,
1155 1,,上新田,,33.2156224,131.6119925,1155 1,,0,,,,
1155 2,,上新田,,33.2147816,131.6109796,1155 2,,0,,,,
1156 1,,ＪＡ全農おおいた,,33.2130326,131.609454,1156 1,,0,,,,
1156 2,,ＪＡ全農おおいた,,33.2130277,131.6092683,1156 2,,0,,,,
1157 1,,花園,,33.2104644,131.6069458,1157 1,,0,,,,
1157 2,,花園,,33.210563,131.6069008,1157 2,,0,,,,
1158 3,,府内大橋③,元町側大分方面,33.2057378,131.6032631,1158 3,,0,,,,
116 1,,岩田町一丁目,,33.236319,131.6268825,116 1,,0,,,,
1161 1,,滝尾橋東,,33.23148,131.6259461,1161 1,,0,,,,
1161 2,,滝尾橋東,,33.2310926,131.6259061,1161 2,,0,,,,
1162 9,,下郡工業団地,,33.2290339,131.6264429,1162 9,,0,,,,
1163 1,,下郡,,33.2274288,131.6296814,1163 1,,0,,,,
1163 2,,下郡,,33.2273508,131.6296887,1163 2,,0,,,,
1164 1,,下郡中央,,33.2255152,131.631317,1164 1,,0,,,,
1164 2,,下郡中央,,33.2254949,131.6311749,1164 2,,0,,,,
1165 1,,羽田入口,,33.221839,131.6303735,1165 1,,0,,,,
1165 2,,羽田入口,,33.2218721,131.6302641,1165 2,,0,,,,
1166 1,,羽田,,33.2187302,131.6290798,1166 1,,0,,,,
1166 2,,羽田,,33.2187146,131.6289514,1166 2,,0,,,,
117 1,,岩田学園,,33.2382168,131.626308,117 1,,0,,,,
1175 1,,大分自動車学校前,,33.2135182,131.6169571,1175 1,,0,,,,
1175 2,,大分自動車学校前,,33.2138271,131.6164151,1175 2,,0,,,,
1176 1,,広瀬橋,,33.215945,131.6141338,1176 1,,0,,,,
1176 2,,広瀬橋,,33.2162311,131.6136135,1176 2,,0,,,,
1184 1,,下郡バイパス入口,,33.225702,131.6284492,1184 1,,0,,,,
1184 2,,下郡バイパス入口,,33.2257309,131.6282607,1184 2,,0,,,,
1185 1,,バイパス羽田,,33.2209813,131.6247401,1185 1,,0,,,,
1185 2,,バイパス羽田,,33.2212173,131.6247135,1185 2,,0,,,,
1186 1,,バイパス片島,,33.21798142,131.6222137,1186 1,,0,,,,
1186 2,,バイパス片島,,33.2181522,131.6221265,1186 2,,0,,,,
1187 1,,大分こども病院前,,33.2154739,131.6201346,1187 1,,0,,,,
1187 2,,大分こども病院前,,33.2156079,131.6199707,1187 2,,0,,,,
1188 1,,大分自動車学校入口,,33.214426,131.6192387,1188 1,,0,,,,
1188 2,,大分自動車学校入口,,33.2137038,131.618347,1188 2,,0,,,,
1189 1,,滝尾校区公民館前,,33.2163692,131.6281195,1189 1,,0,,,,
1189 2,,滝尾校区公民館前,,33.2164178,131.6279771,1189 2,,0,,,,
1190 1,,片島中,,33.2165086,131.6251827,1190 1,,0,,,,
1190 2,,片島中,,33.2169197,131.6242865,1190 2,,0,,,,
12 2,,中央通り②,,33.2366208,131.6075081,12 2,,0,,,,
1201 1,,末広町,,33.2361296,131.6039293,1201 1,,0,,,,
1201 2,,末広町,,33.2366916,131.6032545,1201 2,,0,,,,
1202 1,,大道小学校前,,33.2337968,131.6001675,1202 1,,0,,,,
1202 2,,大道小学校前,,33.23316273,131.5993982,1202 2,,0,,,,
1203 1,,大道四丁目,,33.2300665,131.5976903,1203 1,,0,,,,
1203 2,,大道四丁目,,33.2295089,131.5970034,1203 2,,0,,,,
1204 1,,椎迫入口,,33.2273085,131.5959118,1204 1,,0,,,,
1204 2,,椎迫入口,,33.2274812,131.5956799,1204 2,,0,,,,
1205 1,,南太平寺,,33.2190871,131.5950292,1205 1,,0,,,,
1205 2,,南太平寺,,33.2174512,131.5951603,1205 2,,0,,,,
1206 1,,羽屋新町,,33.2126384,131.5968591,1206 1,,0,,,,
1206 2,,羽屋新町,,33.21261488,131.5965661,1206 2,,0,,,,
1207 1,,稲葉,,33.2110894,131.5981348,1207 1,,0,,,,
1207 2,,稲葉,,33.2109479,131.5979682,1207 2,,0,,,,
1208 2,,大分県立病院,,33.2071206,131.5995161,1208 2,,0,,,,
1209 1,,県立病院入口,,33.2071642,131.6015462,1209 1,,0,,,,
1209 2,,県立病院入口,,33.208802,131.5998175,1209 2,,0,,,,
121 1,,上野ヶ丘中学校前,,33.2283045,131.6116639,121 1,,0,,,,
121 2,,上野ヶ丘中学校前,,33.2281968,131.6113846,121 2,,0,,,,
1210 1,,府内大橋,,33.2044005,131.6039802,1210 1,,0,,,,
1210 2,,府内大橋,,33.2060289,131.6022575,1210 2,,0,,,,
1211 1,,光吉入口,,33.2014597,131.6065788,1211 1,,0,,,,
1211 2,,光吉入口,,33.2013997,131.6062653,1211 2,,0,,,,
1212 1,,宮崎,,33.195795,131.6101381,1212 1,,0,,,,
1212 2,,宮崎,,33.1956081,131.6099331,1212 2,,0,,,,
1213 1,,軒田,,33.191674,131.6127744,1213 1,,0,,,,
1213 2,,軒田,,33.1922795,131.6120746,1213 2,,0,,,,
1214 1,,敷戸駅前,,33.1884764,131.6148042,1214 1,,0,,,,
1214 2,,敷戸駅前,,33.1885293,131.6144534,1214 2,,0,,,,
1215 1,,敷戸,,33.1855346,131.6166559,1215 1,,0,,,,
1215 2,,敷戸,,33.1857196,131.6162584,1215 2,,0,,,,
1216 1,,川久保,,33.182819,131.6168373,1216 1,,0,,,,
1216 2,,川久保,,33.1827232,131.6165095,1216 2,,0,,,,
1217 1,,大分大学入口,,33.1807263,131.6165339,1217 1,,0,,,,
1217 2,,大分大学入口,,33.1809158,131.6162353,1217 2,,0,,,,
1218 1,,高江ハイツ入口,,33.1737041,131.6236804,1218 1,,0,,,,
1218 2,,高江ハイツ入口,,33.1732306,131.6238866,1218 2,,0,,,,
1219 1,,高江,,33.1699657,131.62652,1219 1,,0,,,,
1219 2,,高江,,33.1697038,131.6267008,1219 2,,0,,,,
122 1,,上野丘一丁目,,33.2249401,131.6119161,122 1,,0,,,,
122 2,,上野丘一丁目,,33.2252886,131.6115466,122 2,,0,,,,
1220 1,,大南団地入口,,33.1692429,131.6344759,1220 1,,0,,,,
1220 2,,大南団地入口,,33.1695722,131.6335661,1220 2,,0,,,,
1221 1,,昆布刈橋,,33.1679204,131.6362968,1221 1,,0,,,,
1221 2,,昆布刈橋,,33.1673973,131.6368307,1221 2,,0,,,,
1222 1,,判田局前,,33.1660261,131.6391061,1222 1,,0,,,,
1222 2,,判田局前,,33.1659784,131.63882,1222 2,,0,,,,
1223 1,,判田橋,,33.1647617,131.6413115,1223 1,,0,,,,
1223 2,,判田橋,,33.1646388,131.6409773,1223 2,,0,,,,
1224 1,,白滝橋,,33.1604172,131.6508897,1224 1,,0,,,,
1224 2,,白滝橋,,33.1606589,131.6501364,1224 2,,0,,,,
1225 1,,川床,,33.1571637,131.6536777,1225 1,,0,,,,
1225 2,,川床,,33.1571148,131.6533967,1225 2,,0,,,,
1226 1,,へつぎ病院前,,33.1544442,131.6555608,1226 1,,0,,,,
1226 2,,へつぎ病院前,,33.1543247,131.6553501,1226 2,,0,,,,
1227 1,,戸次,,33.15230571,131.6565305,1227 1,,0,,,,
1227 2,,戸次,,33.1518078,131.6564378,1227 2,,0,,,,
1228 1,,前田,,33.1476067,131.6578391,1228 1,,0,,,,
1228 2,,前田,,33.147603,131.657564,1228 2,,0,,,,
1229 1,,中津留,,33.1438677,131.6580818,1229 1,,0,,,,
1229 2,,中津留,,33.14372332,131.6577975,1229 2,,0,,,,
123 1,,上野丘高校前,,33.2232852,131.6120239,123 1,,0,,,,
123 2,,上野丘高校前,,33.2229055,131.6118071,123 2,,0,,,,
1230 1,,利光,,33.1354943,131.6600289,1230 1,,0,,,,
1230 2,,利光,,33.1353399,131.6597932,1230 2,,0,,,,
1231 1,,上利光,,33.1302599,131.6585766,1231 1,,0,,,,
1231 2,,上利光,,33.1304406,131.6583672,1231 2,,0,,,,
1232 1,,銅尻,,33.127453,131.6568409,1232 1,,0,,,,
1232 2,,銅尻,,33.1264678,131.6559366,1232 2,,0,,,,
1233 1,,大塔,,33.1193182,131.653839,1233 1,,0,,,,
1233 2,,大塔,,33.11962,131.6535839,1233 2,,0,,,,
1234 1,,筒井,,33.114955,131.6548158,1234 1,,0,,,,
1234 2,,筒井,,33.1143127,131.6547895,1234 2,,0,,,,
1235 1,,影の木,,33.10844,131.6562334,1235 1,,0,,,,
1235 2,,影の木,,33.1084463,131.6559503,1235 2,,0,,,,
1236 1,,上り尾,,33.1021281,131.652207,1236 1,,0,,,,
1236 2,,上り尾,,33.1035341,131.6527519,1236 2,,0,,,,
1237 1,,川原,,33.0907076,131.6436505,1237 1,,0,,,,
1237 2,,川原,,33.09116205,131.6451176,1237 2,,0,,,,
1238 1,,犬飼久原,,33.0710789,131.6393638,1238 1,,0,,,,
1238 2,,犬飼久原,,33.0726971,131.6379664,1238 2,,0,,,,
124 1,,上野,,33.22248079,131.6134142,124 1,,0,,,,
124 2,,上野,,33.2224397,131.6134478,124 2,,0,,,,
1241 1,,敷戸西,,33.1871755,131.6194636,1241 1,,0,,,,
1241 2,,敷戸西,,33.1873588,131.6187137,1241 2,,0,,,,
1242 1,,敷戸南,,33.1867721,131.6228745,1242 1,,0,,,,
1242 2,,敷戸南,,33.1863479,131.6222607,1242 2,,0,,,,
1243 1,,敷戸中央,,33.1874253,131.624068,1243 1,,0,,,,
1243 2,,敷戸中央,,33.1872967,131.6240299,1243 2,,0,,,,
1244 1,,敷戸東,,33.188693,131.6259844,1244 1,,0,,,,
1244 2,,敷戸東,,33.1886233,131.6261262,1244 2,,0,,,,
1245 1,,敷戸北,,33.1900818,131.6264754,1245 1,,0,,,,
1245 2,,敷戸北,,33.1900851,131.6264742,1245 2,,0,,,,
1251 9,,星和台入口,,33.1896047,131.6154955,1251 9,,0,,,,
1252 9,,星和台,,33.1919745,131.6195243,1252 9,,0,,,,
1253 9,,芳河原台,,33.1946308,131.6183509,1253 9,,0,,,,
1254 9,,芳河原台入口,,33.195311,131.6174929,1254 9,,0,,,,
1255 1,,大分工業高校,,33.1950187,131.6158588,1255 1,,0,,,,
1255 2,,大分工業高校,,33.1950568,131.6159182,1255 2,,0,,,,
1261 2,,大分大学,,33.1764798,131.6134543,1261 2,,0,,,,
1262 9,,大分大学正門,,33.1783594,131.6170805,1262 9,,0,,,,
1263 1,,大分大学前駅,,33.177063,131.6186852,1263 1,,0,,,,
1263 2,,大分大学前駅,,33.1769782,131.6185812,1263 2,,0,,,,
1264 9,,教育センター前,,33.1744067,131.6200454,1264 9,,0,,,,
1265 2,,旦の原,,33.1732287,131.6195406,1265 2,,0,,,,
1266 1,,高江北１丁目,,33.1703234,131.6188,1266 1,,0,,,,
1266 2,,高江北１丁目,,33.1705021,131.6180212,1266 2,,0,,,,
1267 1,,高江北２丁目,,33.1694644,131.6159016,1267 1,,0,,,,
1267 2,,高江北２丁目,,33.1696224,131.6159109,1267 2,,0,,,,
1268 1,,産業科学技術センター,,33.1660805,131.6118123,1268 1,,0,,,,
1268 2,,産業科学技術センター,,33.1666847,131.611597,1268 2,,0,,,,
1269 1,,高江中央公園前,,33.1641463,131.6145948,1269 1,,0,,,,
1269 2,,高江中央公園前,,33.164229,131.6136378,1269 2,,0,,,,
1270 1,,高江中央２丁目,,33.1648627,131.6177654,1270 1,,0,,,,
1270 2,,高江中央２丁目,,33.1647674,131.6178286,1270 2,,0,,,,
1271 1,,高江中央１丁目,,33.1654959,131.622051,1271 1,,0,,,,
1271 2,,高江中央１丁目,,33.1653584,131.62193,1271 2,,0,,,,
1272 1,,新良橋,,33.162207,131.62632,1272 1,,0,,,,
1272 2,,新良橋,,33.162095,131.6262686,1272 2,,0,,,,
1273 1,,大分南高校,,33.1605159,131.6310425,1273 1,,0,,,,
1273 2,,大分南高校,,33.1603646,131.630847,1273 2,,0,,,,
1273 3,,大分南高校,,33.160645,131.6295121,1273 3,,0,,,,
1274 1,,判田台団地,,33.1631628,131.6337576,1274 1,,0,,,,
1274 2,,判田台団地,,33.1630833,131.6338576,1274 2,,0,,,,
1275 1,,判田中学校前,,33.1659602,131.6342507,1275 1,,0,,,,
1275 2,,判田中学校前,,33.1657922,131.6343685,1275 2,,0,,,,
1276 1,,大南団地西,,33.1690388,131.636435,1276 1,,0,,,,
1276 2,,大南団地西,,33.1689525,131.6364081,1276 2,,0,,,,
1277 1,,大南団地南,,33.1697931,131.6405927,1277 1,,0,,,,
1277 2,,大南団地南,,33.1698268,131.6405859,1277 2,,0,,,,
1278 1,,大南団地中央,,33.1721674,131.6401523,1278 1,,0,,,,
1278 2,,大南団地中央,,33.1721258,131.6401516,1278 2,,0,,,,
1279 1,,大南団地北,,33.1756124,131.6400104,1279 1,,0,,,,
1279 2,,大南団地北,,33.1756462,131.6400063,1279 2,,0,,,,
1281 9,,羽屋,,33.2116017,131.5951683,1281 9,,0,,,,
1282 1,,豊饒,,33.2078987,131.5963299,1282 1,,0,,,,
1282 2,,豊饒,,33.2079152,131.596194,1282 2,,0,,,,
1283 9,,県立病院西口,,33.206541,131.5968491,1283 9,,0,,,,
1284 9,,三段畑,,33.2044382,131.5979163,1284 9,,0,,,,
1285 9,,三段畑,,33.204318,131.5987419,1285 9,,0,,,,
1286 1,,畑中,,33.203389,131.5953758,1286 1,,0,,,,
1286 2,,畑中,,33.2033804,131.5953333,1286 2,,0,,,,
1287 4,,府内大橋④,畑中方面,33.2047785,131.6026489,1287 4,,0,,,,
129 1,,ホルトホール大分,,33.2311592,131.6046303,129 1,,0,,,,
129 2,,ホルトホール大分,,33.2307843,131.6039992,129 2,,0,,,,
1291 1,,南太平寺,,33.2179466,131.5943725,1291 1,,0,,,,
1291 2,,南太平寺,,33.2179144,131.5941334,1291 2,,0,,,,
1292 1,,二又,,33.2165918,131.5930612,1292 1,,0,,,,
1292 2,,二又,,33.2166662,131.5929026,1292 2,,0,,,,
1293 1,,三ヶ田町,,33.2147745,131.5906892,1293 1,,0,,,,
1293 2,,三ヶ田町,,33.2152389,131.5913099,1293 2,,0,,,,
1294 1,,城南団地入口,,33.214469,131.5882735,1294 1,,0,,,,
1294 2,,城南団地入口,,33.2145653,131.5880703,1294 2,,0,,,,
1295 9,,福徳学院高校前,,33.2157499,131.5876256,1295 9,,0,,,,
1296 1,,城南東町,,33.21886,131.5847934,1296 1,,0,,,,
1296 2,,城南東町,,33.218639,131.5851989,1296 2,,0,,,,
1297 1,,城南センター前,,33.2195136,131.583944,1297 1,,0,,,,
1297 2,,城南センター前,,33.2196169,131.5839649,1297 2,,0,,,,
1298 1,,城南公園入口,,33.2191708,131.5801752,1298 1,,0,,,,
1298 2,,城南公園入口,,33.2193128,131.5804056,1298 2,,0,,,,
1299 1,,城南西町,,33.2185025,131.5783545,1299 1,,0,,,,
1299 2,,城南西町,,33.2185396,131.5783478,1299 2,,0,,,,
13 3,,中央通り③,,33.2359041,131.6075371,13 3,,0,,,,
131 1,,東大道１丁目,,33.2304895,131.6021136,131 1,,0,,,,
131 2,,東大道１丁目,,33.2307127,131.6019798,131 2,,0,,,,
133 1,,上野丘公園,,33.2268365,131.6019554,133 1,,0,,,,
133 2,,上野丘公園,,33.2268864,131.6020473,133 2,,0,,,,
134 1,,大分市美術館,,33.2231235,131.6024572,134 1,,0,,,,
135 1,,西山公園下,,33.228067,131.607767,135 1,,0,,,,
136 1,,菜の本,,33.2276781,131.6098597,136 1,,0,,,,
137 1,,楊志館高校前,,33.2279699,131.6047559,137 1,,0,,,,
138 1,,金池南２丁目,,33.2297152,131.6100816,138 1,,0,,,,
138 2,,金池南２丁目,,33.2298288,131.6087309,138 2,,0,,,,
14 4,,中央通り④,,33.2352366,131.6075791,14 4,,0,,,,
140 1,,東大道2丁目,,33.2288055,131.6012206,140 1,,0,,,,
140 2,,東大道2丁目,,33.2287866,131.6010824,140 2,,0,,,,
1401 1,,宮崎西,,33.1981896,131.6054263,1401 1,,0,,,,
1401 2,,宮崎西,,33.1981786,131.6051172,1401 2,,0,,,,
1402 1,,光吉台入口,,33.1956281,131.6030709,1402 1,,0,,,,
1402 2,,光吉台入口,,33.1955855,131.6029387,1402 2,,0,,,,
1403 9,,光吉台,,33.1926123,131.6034394,1403 9,,0,,,,
1404 1,,宮崎台,,33.1918503,131.6067411,1404 1,,0,,,,
1404 2,,宮崎台,,33.1918546,131.6066239,1404 2,,0,,,,
1405 1,,寒田北町一丁目,,33.1903154,131.6089994,1405 1,,0,,,,
1405 2,,寒田北町一丁目,,33.1902143,131.6089822,1405 2,,0,,,,
1406 1,,寒田北町二丁目,,33.1884679,131.6104038,1406 1,,0,,,,
1406 2,,寒田北町二丁目,,33.1887386,131.6103679,1406 2,,0,,,,
1407 1,,寒田北町三丁目,,33.1872736,131.60895,1407 1,,0,,,,
1407 2,,寒田北町三丁目,,33.1874164,131.6089716,1407 2,,0,,,,
1408 1,,寒田南町一丁目,,33.1844522,131.6074014,1408 1,,0,,,,
1408 2,,寒田南町一丁目,,33.184849,131.6074381,1408 2,,0,,,,
1409 1,,寒田南町二丁目,,33.181204,131.6059102,1409 1,,0,,,,
1409 2,,寒田南町二丁目,,33.1821167,131.6061762,1409 2,,0,,,,
141 1,,上田町,,33.2164123,131.598005,141 1,,0,,,,
141 2,,上田町,,33.21616,131.5973469,141 2,,0,,,,
1410 1,,寒田南町四丁目,,33.1793452,131.6042417,1410 1,,0,,,,
1410 2,,寒田南町四丁目,,33.1794371,131.6041718,1410 2,,0,,,,
1411 1,,寒田団地南口,,33.1780026,131.601241,1411 1,,0,,,,
1411 2,,寒田団地南口,,33.1778806,131.6006878,1411 2,,0,,,,
1412 1,,ふじが丘東口,,33.1769194,131.5988126,1412 1,,0,,,,
1412 2,,ふじが丘東口,,33.1773688,131.5995684,1412 2,,0,,,,
1413 1,,光吉台,,33.1924213,131.6031747,1413 1,,0,,,,
1413 2,,光吉台,,33.1924835,131.6030374,1413 2,,0,,,,
1414 1,,光吉台中央,,33.1910844,131.6017477,1414 1,,0,,,,
1414 2,,光吉台中央,,33.1911523,131.6013594,1414 2,,0,,,,
1415 1,,わんぱく公園前,,33.189938,131.5993141,1415 1,,0,,,,
1415 2,,わんぱく公園前,,33.1899072,131.5990404,1415 2,,0,,,,
1416 1,,小原団地入口,,33.1863479,131.6032116,1416 1,,0,,,,
142 1,,南太平寺入口,,33.2173525,131.6027265,142 1,,0,,,,
142 2,,南太平寺入口,,33.2172049,131.6026627,142 2,,0,,,,
1421 9,,光吉公園前,,33.1888053,131.5972251,1421 9,,0,,,,
1422 1,,光吉新町,,33.1873055,131.5999024,1422 1,,0,,,,
1422 2,,光吉新町,,33.1877373,131.5994287,1422 2,,0,,,,
1423 1,,ふじが丘入口,,33.1854806,131.5988667,1423 1,,0,,,,
1423 2,,ふじが丘入口,,33.1855776,131.5987729,1423 2,,0,,,,
1424 1,,ふじが丘北,,33.1834839,131.5993638,1424 1,,0,,,,
1424 2,,ふじが丘北,,33.1834717,131.5992354,1424 2,,0,,,,
1425 1,,ふじが丘東,,33.1807217,131.5999083,1425 1,,0,,,,
1425 2,,ふじが丘東,,33.1810548,131.5997027,1425 2,,0,,,,
1426 1,,ふじが丘中央,,33.1793606,131.5976913,1426 1,,0,,,,
1426 2,,ふじが丘中央,,33.1794538,131.5976057,1426 2,,0,,,,
1427 1,,ふじが丘南,,33.1761424,131.5961594,1427 1,,0,,,,
1427 2,,ふじが丘南,,33.1763214,131.596812,1427 2,,0,,,,
1428 1,,ふじが丘山手,,33.1756806,131.5928352,1428 1,,0,,,,
1428 2,,ふじが丘山手,,33.1758315,131.593165,1428 2,,0,,,,
1429 2,,ふじが丘西,,33.1801196,131.5949441,1429 2,,0,,,,
143 1,,仏光寺前,,33.2176453,131.6065751,143 1,,0,,,,
143 2,,仏光寺前,,33.2175934,131.6067872,143 2,,0,,,,
144 1,,三福寺前,,33.2185691,131.6103392,144 1,,0,,,,
144 2,,三福寺前,,33.2184132,131.6103093,144 2,,0,,,,
145 1,,古国府,,33.21914783,131.614331,145 1,,0,,,,
145 2,,古国府,,33.2190153,131.6132815,145 2,,0,,,,
146 1,,六坊町,,33.2280978,131.6156692,146 1,,0,,,,
146 2,,六坊町,,33.228107,131.6155394,146 2,,0,,,,
147 1,,六坊南町,,33.2265789,131.6159426,147 1,,0,,,,
147 2,,六坊南町,,33.2262833,131.6159692,147 2,,0,,,,
151 2,,昭和通り,,33.2391795,131.6054315,151 2,,0,,,,
152 2,,オアシス広場前,,33.2386167,131.602565,152 2,,0,,,,
16 6,,中央通り⑥,,33.2359594,131.6072509,16 6,,0,,,,
2001 1,,羽屋入口,,33.2133918,131.5955037,2001 1,,0,,,,
2001 2,,羽屋入口,,33.213643,131.5954098,2001 2,,0,,,,
2002 1,,田中,,33.2109594,131.5928707,2002 1,,0,,,,
2002 2,,田中,,33.2106621,131.5922455,2002 2,,0,,,,
2003 1,,田中南,,33.2087684,131.5904401,2003 1,,0,,,,
2003 2,,田中南,,33.2084953,131.5898679,2003 2,,0,,,,
2004 1,,明磧,,33.2056679,131.5869996,2004 1,,0,,,,
2004 2,,明磧,,33.2066117,131.5878002,2004 2,,0,,,,
2005 1,,上宗方,,33.2018795,131.5843685,2005 1,,0,,,,
2005 2,,上宗方,,33.2024596,131.5841116,2005 2,,0,,,,
2006 1,,宗方,,33.1980953,131.5813308,2006 1,,0,,,,
2006 2,,宗方,,33.1979354,131.5809678,2006 2,,0,,,,
2007 1,,雄城台高校入口,,33.1968331,131.5802814,2007 1,,0,,,,
2007 2,,雄城台高校入口,,33.1966903,131.5799566,2007 2,,0,,,,
2008 1,,二豊団地入口,,33.1937255,131.5778357,2008 1,,0,,,,
2008 2,,二豊団地入口,,33.1939738,131.5778663,2008 2,,0,,,,
2009 1,,下芹,,33.189826,131.5743839,2009 1,,0,,,,
2009 2,,下芹,,33.1900611,131.5746151,2009 2,,0,,,,
201 1,,大分市役所合同新聞社前,,33.2392866,131.6093182,201 1,,0,,,,
201 2,,大分市役所合同新聞社前,,33.2390312,131.6104396,201 2,,0,,,,
201 3,,大分市役所合同新聞社前,,33.2393013,131.6093667,201 3,,0,,,,
2010 1,,稙田農協前,,33.1872306,131.5702129,2010 1,,0,,,,
2010 2,,稙田農協前,,33.1874982,131.5703935,2010 2,,0,,,,
2011 1,,木の上,,33.1853533,131.5676052,2011 1,,0,,,,
2011 2,,木の上,,33.1853772,131.5674692,2011 2,,0,,,,
2012 1,,稙田小学校前,,33.1844306,131.5645539,2012 1,,0,,,,
2012 2,,稙田小学校前,,33.1845668,131.5652961,2012 2,,0,,,,
2013 1,,田原,,33.1863299,131.5556703,2013 1,,0,,,,
2013 2,,田原,,33.1857875,131.5573568,2013 2,,0,,,,
2014 1,,国分入口,,33.1874013,131.5523008,2014 1,,0,,,,
2014 2,,国分入口,,33.18756677,131.5513376,2014 2,,0,,,,
2015 1,,下横瀬,,33.1873374,131.5475169,2015 1,,0,,,,
2015 2,,下横瀬,,33.1874439,131.5473034,2015 2,,0,,,,
2016 1,,横瀬,,33.1880944,131.5418309,2016 1,,0,,,,
2016 2,,横瀬,,33.1880617,131.5425952,2016 2,,0,,,,
2017 9,,上横瀬,,33.1889414,131.5380629,2017 9,,0,,,,
2018 1,,大分南署前,,33.1899214,131.5358838,2018 1,,0,,,,
2018 2,,大分南署前,,33.189632,131.5367962,2018 2,,0,,,,
2019 1,,井手淵,,33.191121,131.5335465,2019 1,,0,,,,
2019 2,,井手淵,,33.1911888,131.5336273,2019 2,,0,,,,
202 1,,県庁前,,33.2393381,131.6127303,202 1,,0,,,,
202 2,,県庁前,,33.2390476,131.6127349,202 2,,0,,,,
2020 9,,鬼崎,,33.1937885,131.5313059,2020 9,,0,,,,
2021 1,,下鬼崎,,33.1969328,131.5288644,2021 1,,0,,,,
2021 2,,下鬼崎,,33.1968743,131.5291458,2021 2,,0,,,,
2022 1,,天神橋,,33.1980979,131.5268482,2022 1,,0,,,,
2022 2,,天神橋,,33.1980566,131.5272564,2022 2,,0,,,,
2023 1,,鶴田入口,,33.1990561,131.5239124,2023 1,,0,,,,
2023 2,,鶴田入口,,33.1991594,131.5240122,2023 2,,0,,,,
2024 1,,上市,,33.2000105,131.5200464,2024 1,,0,,,,
2024 2,,上市,,33.2001197,131.520127,2024 2,,0,,,,
2025 1,,医大バイパス入口,,33.2001321,131.5181176,2025 1,,0,,,,
2025 2,,医大バイパス入口,,33.2002387,131.5179084,2025 2,,0,,,,
2026 1,,向の原,,33.1996814,131.5139315,2026 1,,0,,,,
2026 2,,向の原,,33.1998668,131.5142134,2026 2,,0,,,,
2027 9,,挾間小学校前,,33.1985322,131.5141403,2027 9,,0,,,,
2028 1,,向之原駅,,33.1968834,131.5140097,2028 1,,0,,,,
2028 2,,向之原駅,,33.1968832,131.5139755,2028 2,,0,,,,
203 1,,城崎,,33.2393766,131.6150989,203 1,,0,,,,
203 2,,城崎,,33.2391156,131.6152591,203 2,,0,,,,
2032 1,,下宗方,,33.1984832,131.5867572,2032 1,,0,,,,
2032 2,,下宗方,,33.1982699,131.5863875,2032 2,,0,,,,
2033 1,,大分高等技術専門校,,33.1962914,131.5910525,2033 1,,0,,,,
2033 2,,大分高等技術専門校,,33.1963393,131.5910418,2033 2,,0,,,,
2034 1,,八幡田,,33.1940778,131.5919284,2034 1,,0,,,,
2034 2,,八幡田,,33.1938675,131.5919365,2034 2,,0,,,,
2035 9,,下田尻,,33.1918588,131.5921647,2035 9,,0,,,,
2036 1,,田尻,,33.1876077,131.5931091,2036 1,,0,,,,
2036 2,,田尻,,33.1876317,131.5929365,2036 2,,0,,,,
2037 9,,上田尻,,33.1830066,131.5926116,2037 9,,0,,,,
2038 1,,田尻ＧＨ入口,,33.1813122,131.5922767,2038 1,,0,,,,
2038 2,,田尻ＧＨ入口,,33.1812815,131.5914799,2038 2,,0,,,,
2039 1,,田尻ＧＨ入口,,33.1800842,131.5915847,2039 1,,0,,,,
2039 2,,田尻ＧＨ入口,,33.180255,131.591821,2039 2,,0,,,,
204 1,,舞鶴町,,33.23921241,131.6181297,204 1,,0,,,,
204 2,,舞鶴町,,33.2389344,131.6181171,204 2,,0,,,,
2040 9,,田尻ＧＨ東,,33.1821001,131.5888042,2040 9,,0,,,,
2041 1,,田尻ＧＨ中央,,33.1814213,131.5871219,2041 1,,0,,,,
2042 1,,田尻ＧＨ西入口,,33.1814635,131.5842467,2042 1,,0,,,,
2043 1,,田尻ＧＨ西,,33.17958486,131.584052,2043 1,,0,,,,
2044 1,,公民館前,,33.1795375,131.5851532,2044 1,,0,,,,
2045 1,,田尻ＧＨ南,,33.1812792,131.5873922,2045 1,,0,,,,
2047 1,,田尻ＧＨ北,,33.1819266,131.5852797,2047 1,,0,,,,
2047 2,,田尻ＧＨ北,,33.1819292,131.585255,2047 2,,0,,,,
2048 1,,田尻ＮＴ入口,,33.1775418,131.5844469,2048 1,,0,,,,
2048 2,,田尻ＮＴ入口,,33.1780317,131.5843302,2048 2,,0,,,,
2049 1,,田尻みなみ公園,,33.1755201,131.5846528,2049 1,,0,,,,
2049 2,,田尻みなみ公園,,33.176092,131.5844977,2049 2,,0,,,,
205 1,,舞鶴橋,,33.2400576,131.6243544,205 1,,0,,,,
205 2,,舞鶴橋,,33.240007,131.6247596,205 2,,0,,,,
2050 1,,田尻南２丁目,,33.1744751,131.5818824,2050 1,,0,,,,
2050 9,,田尻南２丁目,,33.1744584,131.5818515,2050 9,,0,,,,
2051 1,,宗方,,33.1962454,131.5825724,2051 1,,0,,,,
2051 2,,宗方,,33.1971001,131.5820348,2051 2,,0,,,,
2052 1,,新生支援学校前,,33.1915544,131.5848355,2052 1,,0,,,,
2052 2,,新生支援学校前,,33.1917701,131.5844467,2052 2,,0,,,,
2053 2,,トキハわさだタウン,,33.1892943,131.5822201,2053 2,,0,,,,
2054 1,,光吉公民館入口,,33.195783,131.5994881,2054 1,,0,,,,
2054 2,,光吉公民館入口,,33.1954314,131.5985169,2054 2,,0,,,,
2055 9,,稙田市民行政センター,,33.1885703,131.5778984,2055 9,,0,,,,
2056 9,,三愛メディカルセンター,,33.1868547,131.5747286,2056 9,,0,,,,
2057 1,,サンリブわさだ前,,33.1862501,131.5707911,2057 1,,0,,,,
2057 2,,サンリブわさだ前,,33.1861579,131.571011,2057 2,,0,,,,
206 1,,大分放送前,,33.241064,131.6271837,206 1,,0,,,,
206 2,,大分放送前,,33.2405757,131.6263563,206 2,,0,,,,
2061 1,,大分バス団地入口,,33.2001354,131.5808971,2061 1,,0,,,,
2061 2,,大分バス団地入口,,33.2002422,131.5810965,2061 2,,0,,,,
2062 1,,松が丘中央,,33.20166569,131.575635,2062 1,,0,,,,
2062 2,,松が丘中央,,33.20174902,131.5761516,2062 2,,0,,,,
2063 1,,松が丘西,,33.2009969,131.5730472,2063 1,,0,,,,
2063 2,,松が丘西,,33.2011046,131.5730113,2063 2,,0,,,,
2064 1,,松が丘南,,33.1987129,131.5713318,2064 1,,0,,,,
2064 2,,松が丘南,,33.1988287,131.5713558,2064 2,,0,,,,
2065 1,,小野鶴東,,33.1984781,131.568544,2065 1,,0,,,,
2065 2,,小野鶴東,,33.1985851,131.5687081,2065 2,,0,,,,
2066 9,,小野鶴西,,33.1978626,131.5655275,2066 9,,0,,,,
2067 1,,小野鶴南一丁目,,33.1961588,131.5628209,2067 1,,0,,,,
2067 2,,小野鶴南一丁目,,33.1963284,131.5629509,2067 2,,0,,,,
2068 1,,小野鶴南二丁目,,33.1921296,131.5606336,2068 1,,0,,,,
2068 2,,小野鶴南二丁目,,33.1921765,131.5605076,2068 2,,0,,,,
2069 1,,稙田西中学校前,,33.1907392,131.5594171,2069 1,,0,,,,
2069 2,,稙田西中学校前,,33.1907117,131.5592458,2069 2,,0,,,,
207 1,,中津留,,33.2423791,131.6309375,207 1,,0,,,,
207 2,,中津留,,33.2417721,131.6296855,207 2,,0,,,,
2070 1,,田原入口,,33.18806,131.5549563,2070 1,,0,,,,
2070 2,,田原入口,,33.1881762,131.5548446,2070 2,,0,,,,
208 1,,花津留,,33.242346,131.6338717,208 1,,0,,,,
208 2,,花津留,,33.2422577,131.6327334,208 2,,0,,,,
209 1,,乗越,,33.2420168,131.6382953,209 1,,0,,,,
209 2,,乗越,,33.2418131,131.6376747,209 2,,0,,,,
21 10,,竹町赤レンガ通り,,33.2373196,131.6072004,21 10,,0,,,,
210 1,,西萩原,,33.24212919,131.6422942,210 1,,0,,,,
210 2,,西萩原,,33.2419322,131.6412187,210 2,,0,,,,
2101 1,,富士見が丘入口,,33.1862008,131.552851,2101 1,,0,,,,
2101 2,,富士見が丘入口,,33.1863137,131.5527638,2101 2,,0,,,,
2102 1,,富士見が丘東,,33.1830794,131.5511587,2102 1,,0,,,,
2102 2,,富士見が丘東,,33.183092,131.5507653,2102 2,,0,,,,
2103 1,,富士見が丘中央通り,,33.1821606,131.5470792,2103 1,,0,,,,
2103 2,,富士見が丘中央通り,,33.1822094,131.5469052,2103 2,,0,,,,
2104 1,,富士見が丘センター前,,33.1816033,131.5446283,2104 1,,0,,,,
2104 2,,富士見が丘センター前,,33.1815671,131.544062,2104 2,,0,,,,
2105 2,,富士見が丘グリーン前,,33.1816938,131.5427727,2105 2,,0,,,,
2106 1,,富士見が丘南,,33.1785295,131.5437058,2106 1,,0,,,,
2106 2,,富士見が丘南,,33.1785181,131.5435356,2106 2,,0,,,,
2107 1,,看護大学前,,33.1758476,131.5440893,2107 1,,0,,,,
2107 2,,看護大学前,,33.1754881,131.544386,2107 2,,0,,,,
2108 1,,富士見が丘西入口,,33.1774255,131.5410131,2108 1,,0,,,,
2108 2,,富士見が丘西入口,,33.1775407,131.5410868,2108 2,,0,,,,
2109 1,,富士見が丘西,,33.1767585,131.5380727,2109 1,,0,,,,
2109 2,,富士見が丘西,,33.1769108,131.5382892,2109 2,,0,,,,
211 1,,萩原,,33.2424018,131.6451447,211 1,,0,,,,
211 2,,萩原,,33.24223,131.6451664,211 2,,0,,,,
211 3,,萩原,,33.2420339,131.6464895,211 3,,0,,,,
2110 1,,富士見が丘北,,33.1794845,131.5377855,2110 1,,0,,,,
2110 2,,富士見が丘北,,33.1797396,131.5378994,2110 2,,0,,,,
2111 1,,富士見が丘スポーツ公園前,,33.1812908,131.5395303,2111 1,,0,,,,
2111 2,,富士見が丘スポーツ公園前,,33.1811737,131.5394735,2111 2,,0,,,,
2112 9,,グリーンプラザ北,,33.1822367,131.542844,2112 9,,0,,,,
2113 1,,横瀬小学校入口,,33.1853995,131.5441318,2113 1,,0,,,,
2113 2,,横瀬小学校入口,,33.185338,131.5442774,2113 2,,0,,,,
212 1,,新貝,,33.2432516,131.6485249,212 1,,0,,,,
212 2,,新貝,,33.2432625,131.649072,212 2,,0,,,,
2121 1,,緑が丘入口,,33.191766,131.532364,2121 1,,0,,,,
2121 2,,緑が丘入口,,33.1917863,131.5321902,2121 2,,0,,,,
2122 1,,緑が丘一丁目,,33.1898202,131.5289742,2122 1,,0,,,,
2122 2,,緑が丘一丁目,,33.1899628,131.5289456,2122 2,,0,,,,
2123 1,,緑が丘二丁目,,33.1882178,131.5288778,2123 1,,0,,,,
2123 2,,緑が丘二丁目,,33.1881093,131.528809,2123 2,,0,,,,
2124 1,,緑が丘三丁目,,33.1861499,131.5311061,2124 1,,0,,,,
2124 2,,緑が丘三丁目,,33.1863722,131.5306109,2124 2,,0,,,,
2125 1,,ストア前,,33.1844412,131.5301407,2125 1,,0,,,,
2125 2,,ストア前,,33.1845578,131.5300905,2125 2,,0,,,,
2126 1,,緑が丘大通り,,33.1850896,131.5273664,2126 1,,0,,,,
2126 2,,緑が丘大通り,,33.1851927,131.5273637,2126 2,,0,,,,
2127 1,,緑が丘四丁目,,33.1842061,131.5263253,2127 1,,0,,,,
2127 2,,緑が丘四丁目,,33.1841971,131.5262127,2127 2,,0,,,,
2128 1,,緑が丘五丁目,,33.1818456,131.5267247,2128 1,,0,,,,
2128 2,,緑が丘五丁目,,33.1818043,131.5266085,2128 2,,0,,,,
2129 1,,大分南営業所,,33.1796827,131.5259237,2129 1,,0,,,,
2129 2,,大分南営業所,,33.1796883,131.5258407,2129 2,,0,,,,
213 1,,高城,,33.2444691,131.655549,213 1,,0,,,,
213 2,,高城,,33.2443187,131.655573,213 2,,0,,,,
2130 1,,すくすくいきいき村,,33.1771739,131.5261413,2130 1,,0,,,,
2130 2,,すくすくいきいき村,,33.1771728,131.5261425,2130 2,,0,,,,
2131 2,,宗方台東,,33.1971681,131.577005,2131 2,,0,,,,
2132 2,,宗方台中央,,33.1983389,131.5752719,2132 2,,0,,,,
2133 2,,宗方台北,,33.2000767,131.5757314,2133 2,,0,,,,
214 1,,鷹松神社前,,33.2449527,131.6586675,214 1,,0,,,,
214 2,,鷹松神社前,,33.2446944,131.6580866,214 2,,0,,,,
2141 9,,二豊団地東,,33.1939637,131.576211,2141 9,,0,,,,
2142 9,,二豊団地北,,33.1952981,131.5762991,2142 9,,0,,,,
2143 9,,椿が丘団地入口,,33.1958701,131.5742097,2143 9,,0,,,,
2144 9,,椿が丘団地,,33.1954333,131.5719176,2144 9,,0,,,,
2145 9,,萌葱台入口,,33.1931023,131.570334,2145 9,,0,,,,
2146 1,,萌葱台中央,,33.191347,131.5672796,2146 1,,0,,,,
2146 2,,萌葱台中央,,33.191297,131.5674836,2146 2,,0,,,,
2147 1,,萌葱台,,33.1899893,131.5696081,2147 1,,0,,,,
2147 9,,萌葱台,,33.1899798,131.5695692,2147 9,,0,,,,
2148 9,,小野鶴東,,33.198193,131.5694852,2148 9,,0,,,,
215 1,,仲西町,,33.2451025,131.6622804,215 1,,0,,,,
215 2,,仲西町,,33.2449498,131.6622932,215 2,,0,,,,
216 1,,山津,,33.2447182,131.6650815,216 1,,0,,,,
216 2,,山津,,33.2446924,131.6641364,216 2,,0,,,,
217 1,,千才下,,33.242272,131.6707226,217 1,,0,,,,
217 2,,千才下,,33.2421682,131.6704527,217 2,,0,,,,
218 1,,乙津港町,,33.2414284,131.6746418,218 1,,0,,,,
218 2,,乙津港町,,33.241281,131.6746114,218 2,,0,,,,
219 1,,乙津,,33.2408673,131.6773114,219 1,,0,,,,
219 2,,乙津,,33.2406731,131.6774448,219 2,,0,,,,
220 1,,寺司,,33.241166,131.6852027,220 1,,0,,,,
220 2,,寺司,,33.2410144,131.685892,220 2,,0,,,,
2201 1,,大柳,,33.1817455,131.56264,2201 1,,0,,,,
2201 2,,大柳,,33.181669,131.562369,2201 2,,0,,,,
2202 1,,木の上峠,,33.1802261,131.5599082,2202 1,,0,,,,
2202 2,,木の上峠,,33.1802497,131.5597932,2202 2,,0,,,,
2203 1,,少林寺前,,33.1782629,131.5571026,2203 1,,0,,,,
2203 2,,少林寺前,,33.1782518,131.5566114,2203 2,,0,,,,
2204 1,,塚野温泉入口,,33.176267,131.551727,2204 1,,0,,,,
2204 2,,塚野温泉入口,,33.1761708,131.5518629,2204 2,,0,,,,
2205 9,,田吹橋,,33.1709842,131.5464866,2205 9,,0,,,,
2206 1,,廻栖,,33.1692686,131.5451804,2206 1,,0,,,,
2206 2,,廻栖,,33.1694742,131.5451518,2206 2,,0,,,,
2207 9,,山際,,33.1658646,131.5429126,2207 9,,0,,,,
2208 1,,恵良,,33.1650251,131.5344198,2208 1,,0,,,,
2208 2,,恵良,,33.1651129,131.5343937,2208 2,,0,,,,
2209 1,,入蔵入口,,33.1642479,131.5323416,2209 1,,0,,,,
2209 2,,入蔵入口,,33.164403,131.5324363,2209 2,,0,,,,
221 1,,鶴崎駅前,,33.2408389,131.6884576,221 1,,0,,,,
221 2,,鶴崎駅前,,33.2406566,131.6886543,221 2,,0,,,,
2210 1,,野津原,,33.1633286,131.5293127,2210 1,,0,,,,
2210 2,,野津原,,33.1635247,131.5296981,2210 2,,0,,,,
2211 9,,福城寺前,,33.1628699,131.5271088,2211 9,,0,,,,
2212 9,,野津原新町,,33.1620619,131.5261788,2212 9,,0,,,,
2213 1,,一の瀬,,33.1600234,131.5246433,2213 1,,0,,,,
2213 2,,一の瀬,,33.1603001,131.525019,2213 2,,0,,,,
222 1,,西町,,33.2403538,131.6908745,222 1,,0,,,,
222 2,,西町,,33.2399889,131.6918657,222 2,,0,,,,
223 1,,鶴崎,,33.2399314,131.6929381,223 1,,0,,,,
223 2,,鶴崎,,33.23966368,131.6934734,223 2,,0,,,,
2237 9,,恵良入口,,33.162975,131.537353,2237 9,,0,,,,
2238 9,,野津原公民館,,33.1596326,131.523891,2238 9,,0,,,,
224 1,,鶴崎橋,,33.2393905,131.6957355,224 1,,0,,,,
224 2,,鶴崎橋,,33.2392035,131.6959779,224 2,,0,,,,
225 1,,志村,,33.2397371,131.7027152,225 1,,0,,,,
225 2,,志村,,33.2391679,131.7022428,225 2,,0,,,,
226 1,,極楽寺,,33.2461111,131.7058942,226 1,,0,,,,
226 2,,極楽寺,,33.2454032,131.7052734,226 2,,0,,,,
227 1,,須賀,,33.2492717,131.7080059,227 1,,0,,,,
227 2,,須賀,,33.2487718,131.7075206,227 2,,0,,,,
228 1,,久保,,33.2488641,131.7116627,228 1,,0,,,,
228 2,,久保,,33.2488316,131.7108062,228 2,,0,,,,
229 1,,北公園前,,33.2486403,131.7138528,229 1,,0,,,,
229 2,,北公園前,,33.2486238,131.712858,229 2,,0,,,,
23 12,,竹町,,33.238449,131.6074623,23 12,,0,,,,
230 1,,前横田,,33.24826315,131.7160712,230 1,,0,,,,
230 2,,前横田,,33.2484096,131.7149019,230 2,,0,,,,
2301 1,,田中北,,33.2118181,131.5908306,2301 1,,0,,,,
2301 2,,田中北,,33.2118721,131.5910024,2301 2,,0,,,,
2302 1,,大石町一丁目,,33.212233,131.5879384,2302 1,,0,,,,
2302 2,,大石町一丁目,,33.212295,131.5883463,2302 2,,0,,,,
2303 1,,荏隈,,33.2128502,131.5841886,2303 1,,0,,,,
2303 2,,荏隈,,33.21284,131.5848636,2303 2,,0,,,,
2304 1,,こども・女性センター前,,33.21319,131.5818855,2304 1,,0,,,,
2304 2,,こども・女性センター前,,33.2132498,131.5822768,2304 2,,0,,,,
2305 1,,中の瀬団地入口,,33.2132454,131.5786585,2305 1,,0,,,,
2305 2,,中の瀬団地入口,,33.2133363,131.5785894,2305 2,,0,,,,
2306 1,,賀来入口,,33.2127854,131.5734632,2306 1,,0,,,,
2306 2,,賀来入口,,33.2128915,131.5735605,2306 2,,0,,,,
2307 1,,桑原下,,33.2122264,131.5677771,2307 1,,0,,,,
2307 2,,桑原下,,33.2124272,131.5679299,2307 2,,0,,,,
2308 1,,桑原上,,33.211841,131.5639412,2308 1,,0,,,,
2308 2,,桑原上,,33.21213103,131.5640021,2308 2,,0,,,,
2309 1,,上餅田,,33.2120699,131.5581239,2309 1,,0,,,,
2309 2,,上餅田,,33.2122774,131.5583478,2309 2,,0,,,,
231 1,,大在小学校前,,33.24721331,131.7183377,231 1,,0,,,,
231 2,,大在小学校前,,33.2472836,131.7178504,231 2,,0,,,,
2310 1,,下角の前,,33.2117957,131.5549361,2310 1,,0,,,,
2310 2,,下角の前,,33.2120264,131.5550044,2310 2,,0,,,,
2311 1,,新賀来橋,,33.2103868,131.5525518,2311 1,,0,,,,
2311 2,,新賀来橋,,33.2105261,131.5524296,2311 2,,0,,,,
2312 1,,中尾,,33.2094101,131.5497699,2312 1,,0,,,,
2312 2,,中尾,,33.2095749,131.5497246,2312 2,,0,,,,
2313 1,,新屋敷,,33.2114165,131.5455414,2313 1,,0,,,,
2313 2,,新屋敷,,33.2114199,131.5461077,2313 2,,0,,,,
2314 1,,小原,,33.2106783,131.5411497,2314 1,,0,,,,
2314 2,,小原,,33.2104921,131.5406781,2314 2,,0,,,,
2315 1,,学園台,,33.2083906,131.5369143,2315 1,,0,,,,
2315 2,,学園台,,33.2084444,131.5364166,2315 2,,0,,,,
2316 2,,大学病院,,33.2093285,131.534988,2316 2,,0,,,,
2317 1,,学園台西,,33.2066519,131.5335518,2317 1,,0,,,,
2317 2,,学園台西,,33.2069198,131.5334957,2317 2,,0,,,,
2318 1,,下角,,33.2057618,131.5241021,2318 1,,0,,,,
2318 2,,下角,,33.2059267,131.523836,2318 2,,0,,,,
2319 1,,北方入口,,33.2049163,131.5203013,2319 1,,0,,,,
2319 2,,北方入口,,33.2050288,131.5197673,2319 2,,0,,,,
232 1,,大在駅前,,33.2462298,131.7204525,232 1,,0,,,,
232 2,,大在駅前,,33.2461314,131.7204135,232 2,,0,,,,
2320 1,,上市本村,,33.2007961,131.5174521,2320 1,,0,,,,
2320 2,,上市本村,,33.2008148,131.51725,2320 2,,0,,,,
233 1,,中向,,33.2444278,131.7240945,233 1,,0,,,,
233 2,,中向,,33.24454,131.7241291,233 2,,0,,,,
2332 1,,野田入口,,33.2040468,131.5377193,2332 1,,0,,,,
2333 1,,野田,,33.19964866,131.5427878,2333 1,,0,,,,
2333 2,,野田,,33.1995852,131.5420844,2333 2,,0,,,,
2334 1,,国分新町入口,,33.1993493,131.548415,2334 1,,0,,,,
2334 2,,国分新町入口,,33.1991045,131.5478364,2334 2,,0,,,,
234 1,,平野,,33.243129,131.727299,234 1,,0,,,,
234 2,,平野,,33.2429865,131.7273264,234 2,,0,,,,
2341 9,,医大ヶ丘１丁目,,33.2097082,131.5325175,2341 9,,0,,,,
2342 1,,小学校前,,33.2098483,131.5278717,2342 1,,0,,,,
2342 2,,小学校前,,33.2099007,131.5281657,2342 2,,0,,,,
2343 1,,古野,,33.2112088,131.5253721,2343 1,,0,,,,
2343 2,,古野,,33.2111144,131.525968,2343 2,,0,,,,
2344 1,,上古野,,33.2116252,131.5204314,2344 1,,0,,,,
2344 2,,上古野,,33.2118835,131.5211803,2344 2,,0,,,,
2345 1,,喜多里団地,,33.2109741,131.5182117,2345 1,,0,,,,
2345 2,,喜多里団地,,33.2111734,131.5184571,2345 2,,0,,,,
2346 9,,農協前,,33.2096553,131.5138227,2346 9,,0,,,,
2347 9,,赤野,,33.209186,131.509493,2347 9,,0,,,,
235 1,,浜入口,,33.242517,131.7289627,235 1,,0,,,,
235 2,,浜入口,,33.2424158,131.7288919,235 2,,0,,,,
236 1,,浜天満社前,,33.2445814,131.7317293,236 1,,0,,,,
236 2,,浜天満社前,,33.2444901,131.7316256,236 2,,0,,,,
2361 2,,賀来新川,,33.2115145,131.5699394,2361 2,,0,,,,
2362 2,,下河原,,33.2108262,131.5671974,2362 2,,0,,,,
2363 2,,中島,,33.2087814,131.5635278,2363 2,,0,,,,
2364 2,,賀来神社前,,33.2072993,131.5616831,2364 2,,0,,,,
2365 2,,森の木,,33.20458175,131.5589862,2365 2,,0,,,,
2366 1,,国分団地,,33.2009075,131.5607516,2366 1,,0,,,,
2367 9,,御旅所前,,33.1986182,131.5585606,2367 9,,0,,,,
2368 9,,国分,,33.1947468,131.5581206,2368 9,,0,,,,
2369 9,,国分紺屋,,33.1923897,131.5545143,2369 9,,0,,,,
237 1,,浜東,,33.2427603,131.7362921,237 1,,0,,,,
237 2,,浜東,,33.2426353,131.7362359,237 2,,0,,,,
2370 9,,歴史資料館前,,33.1947095,131.5524183,2370 9,,0,,,,
2371 9,,歴史資料館入口,,33.1960014,131.550127,2371 9,,0,,,,
2372 2,,国分新町,,33.1948529,131.5485695,2372 2,,0,,,,
238 1,,横塚中央,,33.2412548,131.7400302,238 1,,0,,,,
238 2,,横塚中央,,33.2411394,131.7399642,238 2,,0,,,,
239 1,,横塚東,,33.2403998,131.7420524,239 1,,0,,,,
239 2,,横塚東,,33.2403136,131.7420008,239 2,,0,,,,
240 1,,王の瀬,,33.2360109,131.7436948,240 1,,0,,,,
240 2,,王の瀬,,33.2358959,131.7434361,240 2,,0,,,,
241 1,,志生場,,33.2355102,131.746316,241 1,,0,,,,
241 2,,志生場,,33.2354014,131.746276,241 2,,0,,,,
242 1,,坂の市,,33.2352547,131.7504925,242 1,,0,,,,
242 2,,坂の市,,33.235127,131.7515794,242 2,,0,,,,
243 1,,坂の市小学校前,,33.2351887,131.7575472,243 1,,0,,,,
243 2,,坂の市小学校前,,33.2350618,131.7573378,243 2,,0,,,,
244 1,,久原,,33.2362004,131.7608249,244 1,,0,,,,
244 2,,久原,,33.2363867,131.7609129,244 2,,0,,,,
245 9,,日吉原レジャープール,,33.2380502,131.7630551,245 9,,0,,,,
246 1,,東久原,,33.2383402,131.7647604,246 1,,0,,,,
246 2,,東久原,,33.238255,131.7649237,246 2,,0,,,,
247 1,,細,,33.2389603,131.7726159,247 1,,0,,,,
247 2,,細,,33.2388283,131.7725442,247 2,,0,,,,
248 1,,中細,,33.239347,131.774343,248 1,,0,,,,
248 2,,中細,,33.239178,131.7739414,248 2,,0,,,,
249 1,,馬場,,33.2397442,131.7879689,249 1,,0,,,,
249 2,,馬場,,33.2395729,131.7871913,249 2,,0,,,,
250 1,,神崎中学校前,,33.2379564,131.7963744,250 1,,0,,,,
250 2,,神崎中学校前,,33.2377088,131.7963868,250 2,,0,,,,
251 1,,幸崎駅,,33.2339766,131.7954616,251 1,,0,,,,
252 1,,本神崎,,33.238453,131.7975141,252 1,,0,,,,
252 2,,本神崎,,33.2383531,131.7972241,252 2,,0,,,,
253 1,,築山古墳入口,,33.2395614,131.8008258,253 1,,0,,,,
253 2,,築山古墳入口,,33.2393299,131.8006142,253 2,,0,,,,
254 9,,河内入口,,33.2413228,131.8045124,254 9,,0,,,,
255 9,,中の原,,33.2416578,131.8067648,255 9,,0,,,,
256 1,,西大平,,33.2446609,131.8149237,256 1,,0,,,,
256 2,,西大平,,33.2443903,131.8144542,256 2,,0,,,,
257 1,,大平,,33.2455808,131.8190689,257 1,,0,,,,
257 2,,大平,,33.2454472,131.8192143,257 2,,0,,,,
258 9,,下大平,,33.2464837,131.8247144,258 9,,0,,,,
259 1,,大志生木西,,33.2470311,131.8331817,259 1,,0,,,,
259 2,,大志生木西,,33.2469157,131.8334911,259 2,,0,,,,
260 9,,大志生木,,33.2471549,131.8363459,260 9,,0,,,,
261 1,,小志生木,,33.2488017,131.842003,261 1,,0,,,,
261 2,,小志生木,,33.2487118,131.8420664,261 2,,0,,,,
262 1,,辛幸,,33.2518346,131.8502684,262 1,,0,,,,
262 2,,辛幸,,33.2518454,131.8501594,262 2,,0,,,,
264 1,,古宮,,33.2490855,131.8651478,264 1,,0,,,,
264 2,,古宮,,33.2490304,131.8648651,264 2,,0,,,,
265 1,,金山,,33.2485469,131.8696048,265 1,,0,,,,
265 2,,金山,,33.2485507,131.8675782,265 2,,0,,,,
266 1,,佐賀関,,33.2488929,131.8735711,266 1,,0,,,,
266 2,,佐賀関,,33.24891584,131.8736414,266 2,,0,,,,
267 1,,大在政所,,33.2463744,131.7215178,267 1,,0,,,,
267 2,,大在政所,,33.2461668,131.7216831,267 2,,0,,,,
268 9,,大分医療センター,,33.2523003,131.7213952,268 9,,0,,,,
269 1,,道の駅さがのせき,,33.2468373,131.8277299,269 1,,0,,,,
269 2,,道の駅さがのせき,,33.2467327,131.8277273,269 2,,0,,,,
271 1,,庄境,,33.2420144,131.7056584,271 1,,0,,,,
271 2,,庄境,,33.2426174,131.7066928,271 2,,0,,,,
272 1,,角子原,,33.2452768,131.7101889,272 1,,0,,,,
272 2,,角子原,,33.2448653,131.7101492,272 2,,0,,,,
273 1,,大在駅裏,,33.2425265,131.7217558,273 1,,0,,,,
273 2,,大在駅裏,,33.2428135,131.7209241,273 2,,0,,,,
274 1,,尾崎,,33.2401195,131.7248097,274 1,,0,,,,
274 2,,尾崎,,33.24003085,131.7246875,274 2,,0,,,,
275 1,,曙台入口,,33.2375328,131.7272884,275 1,,0,,,,
275 2,,曙台入口,,33.2376674,131.7273052,275 2,,0,,,,
276 1,,城原,,33.2376478,131.7324057,276 1,,0,,,,
276 2,,城原,,33.2375258,131.7322259,276 2,,0,,,,
281 9,,坂ノ市駅,,33.2364575,131.7521148,281 9,,0,,,,
282 1,,大分東高校,,33.2210261,131.744194,282 1,,0,,,,
282 2,,大分東高校,,33.2210281,131.7441933,282 2,,0,,,,
291 1,,鶴崎駅前,,33.2413063,131.6871518,291 1,,0,,,,
292 1,,西町,,33.241449,131.6910784,292 1,,0,,,,
293 1,,鶴崎支所前,,33.2408636,131.6945066,293 1,,0,,,,
293 2,,鶴崎支所前,,33.2402909,131.6943041,293 2,,0,,,,
30 1,,要町,,33.2329047,131.6081963,30 1,,0,,,,
3001 1,,犬飼遊船のりば,,33.0700566,131.6411042,3001 1,,0,,,,
3001 2,,犬飼遊船のりば,,33.0700064,131.6402865,3001 2,,0,,,,
3002 1,,吐合橋,,33.0699512,131.6455657,3002 1,,0,,,,
3002 2,,吐合橋,,33.0697885,131.6456203,3002 2,,0,,,,
3003 1,,鍋田,,33.0651042,131.6604405,3003 1,,0,,,,
3003 2,,鍋田,,33.0649546,131.6604861,3003 2,,0,,,,
3004 1,,藤小野,,33.062814,131.6651232,3004 1,,0,,,,
3004 2,,藤小野,,33.0624587,131.6654124,3004 2,,0,,,,
3005 1,,波津久,,33.0567522,131.6766306,3005 1,,0,,,,
3005 2,,波津久,,33.0569011,131.6760578,3005 2,,0,,,,
3006 9,,牧原,,33.0556562,131.6855627,3006 9,,0,,,,
3007 1,,日当,,33.0520975,131.6890698,3007 1,,0,,,,
3007 2,,日当,,33.0519111,131.6888499,3007 2,,0,,,,
3008 1,,野津南,,33.0421572,131.6904962,3008 1,,0,,,,
3008 2,,野津南,,33.0424565,131.6904186,3008 2,,0,,,,
3009 1,,野津南保育園前,,33.0391946,131.6896624,3009 1,,0,,,,
3009 2,,野津南保育園前,,33.0391906,131.6897836,3009 2,,0,,,,
301 1,,中津留一丁目,,33.2432607,131.6277695,301 1,,0,,,,
301 2,,中津留一丁目,,33.243482,131.6278897,301 2,,0,,,,
3010 1,,板屋,,33.0362719,131.6895008,3010 1,,0,,,,
3010 2,,板屋,,33.0363002,131.6893472,3010 2,,0,,,,
3011 1,,野口,,33.0318976,131.6906851,3011 1,,0,,,,
3011 2,,野口,,33.0316828,131.6908815,3011 2,,0,,,,
3012 1,,下落谷,,33.0206171,131.6975006,3012 1,,0,,,,
3012 2,,下落谷,,33.0205475,131.6974062,3012 2,,0,,,,
3013 1,,落谷,,33.017114,131.7010966,3013 1,,0,,,,
3013 2,,落谷,,33.0163158,131.7008031,3013 2,,0,,,,
3014 9,,野津黒土,,33.0107088,131.7036686,3014 9,,0,,,,
3015 1,,清水原,,33.0079814,131.7083054,3015 1,,0,,,,
3015 2,,清水原,,33.0075399,131.708286,3015 2,,0,,,,
3016 1,,川登小学校前,,33.006392,131.7183057,3016 1,,0,,,,
3016 2,,川登小学校前,,33.0063553,131.7169403,3016 2,,0,,,,
3017 1,,今俵,,33.0058383,131.7233905,3017 1,,0,,,,
3017 2,,今俵,,33.0057281,131.7230011,3017 2,,0,,,,
3018 1,,風連鍾乳洞入口,,33.0052241,131.7339468,3018 1,,0,,,,
3018 2,,風連鍾乳洞入口,,33.0051014,131.7343118,3018 2,,0,,,,
3019 9,,内平,,33.006589,131.7410333,3019 9,,0,,,,
302 1,,商業高校前,,33.24624514,131.626662,302 1,,0,,,,
302 2,,商業高校前,,33.2460838,131.6269627,302 2,,0,,,,
3020 9,,遠久原,,33.0006634,131.7482409,3020 9,,0,,,,
3021 1,,垣河内,,32.9998136,131.7511337,3021 1,,0,,,,
3021 2,,垣河内,,32.99982367,131.7509131,3021 2,,0,,,,
3022 9,,板井畑,,32.9975699,131.7535217,3022 9,,0,,,,
3023 1,,割後場,,32.9963603,131.7585693,3023 1,,0,,,,
3023 2,,割後場,,32.9962941,131.7584128,3023 2,,0,,,,
3024 1,,中の谷橋,,33.0041025,131.797281,3024 1,,0,,,,
3024 2,,中の谷橋,,33.00395737,131.7973757,3024 2,,0,,,,
3025 1,,川中,,33.0000303,131.8131651,3025 1,,0,,,,
3025 2,,川中,,32.9997108,131.8134801,3025 2,,0,,,,
3026 9,,年の神,,32.99722514,131.8192242,3026 9,,0,,,,
3027 9,,黒土,,32.9949457,131.822142,3027 9,,0,,,,
3028 1,,尺間登山口,,32.9952371,131.8266177,3028 1,,0,,,,
3028 2,,尺間登山口,,32.995152,131.8262095,3028 2,,0,,,,
3029 1,,上河原,,32.9879574,131.8374809,3029 1,,0,,,,
3029 2,,上河原,,32.98764315,131.8376731,3029 2,,0,,,,
303 1,,大空団地,,33.2481317,131.627763,303 1,,0,,,,
303 2,,大空団地,,33.2478122,131.6276881,303 2,,0,,,,
3030 9,,元田,,32.9860782,131.8397184,3030 9,,0,,,,
3031 1,,植松,,32.982249,131.8482342,3031 1,,0,,,,
3031 2,,植松,,32.982233,131.8481506,3031 2,,0,,,,
3032 1,,木の瀬,,32.9778838,131.8461762,3032 1,,0,,,,
3032 2,,木の瀬,,32.9781914,131.8462479,3032 2,,0,,,,
3033 1,,石丸,,32.9747933,131.8434681,3033 1,,0,,,,
3033 2,,石丸,,32.9747372,131.8433202,3033 2,,0,,,,
3034 1,,養護老人ホームながと前,,32.9721142,131.841162,3034 1,,0,,,,
3034 2,,養護老人ホームながと前,,32.97237818,131.8411235,3034 2,,0,,,,
3035 1,,畑木,,32.9681866,131.838309,3035 1,,0,,,,
3035 2,,畑木,,32.9680401,131.8382096,3035 2,,0,,,,
3036 1,,道の駅やよい前,,32.9659112,131.8381798,3036 1,,0,,,,
3036 2,,道の駅やよい前,,32.96527889,131.8379574,3036 2,,0,,,,
3037 9,,小田,,32.95871302,131.8436072,3037 9,,0,,,,
3038 1,,番匠,,32.9566034,131.8469158,3038 1,,0,,,,
3038 2,,番匠,,32.9571191,131.8460228,3038 2,,0,,,,
3039 9,,下小倉,,32.9547798,131.8498422,3039 9,,0,,,,
304 1,,運輸支局前,,33.24851163,131.6303449,304 1,,0,,,,
304 2,,運輸支局前,,33.2481838,131.6305538,304 2,,0,,,,
3040 9,,樫野入口,,32.9535048,131.8558249,3040 9,,0,,,,
3041 1,,上岡,,32.9558528,131.8633042,3041 1,,0,,,,
3041 2,,上岡,,32.9554017,131.8626513,3041 2,,0,,,,
3042 1,,一本松,,32.9577064,131.8657013,3042 1,,0,,,,
3042 2,,一本松,,32.9576521,131.8657471,3042 2,,0,,,,
3043 1,,下川成,,32.9596076,131.8696982,3043 1,,0,,,,
3043 2,,下川成,,32.9595301,131.8697057,3043 2,,0,,,,
3044 1,,勝尾,,32.9591936,131.8761018,3044 1,,0,,,,
3044 2,,勝尾,,32.95938016,131.8749713,3044 2,,0,,,,
3045 1,,藤原,,32.9577246,131.8813689,3045 1,,0,,,,
3045 2,,藤原,,32.9580445,131.8797685,3045 2,,0,,,,
3046 1,,豊南,,32.9568113,131.8846666,3046 1,,0,,,,
3046 2,,豊南,,32.9572069,131.8828487,3046 2,,0,,,,
3047 1,,角石,,32.9557296,131.8886709,3047 1,,0,,,,
3047 2,,角石,,32.9560131,131.8871904,3047 2,,0,,,,
3048 2,,大手前,,32.9558046,131.8932233,3048 2,,0,,,,
3048 3,,大手前,,32.9558559,131.8932079,3048 3,,0,,,,
3048 4,,大手前,,32.9559074,131.8931924,3048 4,,0,,,,
3048 5,,大手前,,32.9559575,131.893181,3048 5,,0,,,,
3049 1,,内町入口,,32.9587583,131.8960828,3049 1,,0,,,,
3049 2,,内町入口,,32.9587379,131.8961754,3049 2,,0,,,,
305 1,,大洲浜,,33.2488261,131.6331108,305 1,,0,,,,
305 2,,大洲浜,,33.2485439,131.6333621,305 2,,0,,,,
3050 1,,中央通り一丁目,,32.9596904,131.8973846,3050 1,,0,,,,
3050 2,,中央通り一丁目,,32.9597726,131.8976741,3050 2,,0,,,,
3051 1,,中央通り二丁目,,32.9611637,131.8990192,3051 1,,0,,,,
3051 2,,中央通り二丁目,,32.9622322,131.8997376,3051 2,,0,,,,
3052 1,,中央通り三丁目,,32.9631512,131.9000585,3052 1,,0,,,,
3052 2,,中央通り三丁目,,32.964149,131.9006234,3052 2,,0,,,,
3053 1,,中央通り四丁目,,32.9656634,131.9012296,3053 1,,0,,,,
3053 2,,中央通り四丁目,,32.9659588,131.9014713,3053 2,,0,,,,
3054 1,,蟹田,,32.96709647,131.9018854,3054 1,,0,,,,
3054 2,,蟹田,,32.9671906,131.9020563,3054 2,,0,,,,
3055 1,,平野入口,,32.96959622,131.9027352,3055 1,,0,,,,
3055 2,,平野入口,,32.9694629,131.9028518,3055 2,,0,,,,
3056 1,,佐伯駅,,32.97267922,131.9022851,3056 1,,0,,,,
3056 2,,佐伯駅,,32.9727827,131.9025044,3056 2,,0,,,,
306 1,,西中浜,,33.24971167,131.6399608,306 1,,0,,,,
306 2,,西中浜,,33.24959505,131.641644,306 2,,0,,,,
307 1,,東中浜,,33.2502432,131.6444312,307 1,,0,,,,
307 2,,東中浜,,33.24996,131.6443225,307 2,,0,,,,
308 1,,文政開,,33.2508255,131.6488935,308 1,,0,,,,
308 2,,文政開,,33.2505986,131.6495182,308 2,,0,,,,
309 1,,日本製鉄正門前,,33.2514449,131.6537891,309 1,,0,,,,
309 2,,日本製鉄正門前,,33.2512219,131.6543377,309 2,,0,,,,
310 1,,大分土木事務所前,,33.2518826,131.6572049,310 1,,0,,,,
310 2,,大分土木事務所前,,33.2515796,131.6570908,310 2,,0,,,,
3101 9,,港公園入口,,32.9747406,131.9019671,3101 9,,0,,,,
3102 9,,春日通り,,32.97757871,131.9030681,3102 9,,0,,,,
3103 9,,葛港,,32.9788997,131.9028464,3103 9,,0,,,,
311 1,,日岡,,33.252164,131.6593142,311 1,,0,,,,
311 2,,日岡,,33.25186178,131.659359,311 2,,0,,,,
3110 1,,稲垣,,32.9610553,131.861152,3110 1,,0,,,,
3110 2,,稲垣,,32.9608941,131.8611731,3110 2,,0,,,,
3111 1,,コスモタウン,,32.9611648,131.8674243,3111 1,,0,,,,
3111 2,,コスモタウン,,32.96106319,131.8675052,3111 2,,0,,,,
3112 9,,西田病院,,32.9594206,131.8646754,3112 9,,0,,,,
312 1,,原,,33.2527493,131.6639014,312 1,,0,,,,
312 2,,原,,33.2524716,131.6641175,312 2,,0,,,,
313 1,,三ッ川新町,,33.2534229,131.6692394,313 1,,0,,,,
313 2,,三ッ川新町,,33.2531449,131.6694071,313 2,,0,,,,
3131 9,,鶴岡小学校前,,32.9603182,131.8754508,3131 9,,0,,,,
3132 9,,坂山,,32.9629143,131.8770662,3132 9,,0,,,,
3133 9,,高畑,,32.9649188,131.8783824,3133 9,,0,,,,
3134 9,,豊南高校前,,32.9661586,131.8791974,3134 9,,0,,,,
3135 1,,野口,,32.9696247,131.8811424,3135 1,,0,,,,
3135 2,,野口,,32.9698453,131.8813376,3135 2,,0,,,,
3136 9,,中の原,,32.9718991,131.8848554,3136 9,,0,,,,
3139 9,,坂の浦一ノ口,,32.9785607,131.8944825,3139 9,,0,,,,
314 1,,三海橋,,33.25432847,131.6760909,314 1,,0,,,,
314 2,,三海橋,,33.25402851,131.6765742,314 2,,0,,,,
315 1,,三佐小入口,,33.25466186,131.6809238,315 1,,0,,,,
315 2,,三佐小入口,,33.25432855,131.6805572,315 2,,0,,,,
3151 1,,田の浦,,32.97557888,131.9005184,3151 1,,0,,,,
3151 2,,田の浦,,32.975513,131.9004458,3151 2,,0,,,,
3152 9,,坂の浦,,32.98021163,131.8955686,3152 9,,0,,,,
3153 1,,百枝,,32.9881433,131.8913171,3153 1,,0,,,,
3153 2,,百枝,,32.9880216,131.8913325,3153 2,,0,,,,
3154 1,,片山入口,,32.9890385,131.8903477,3154 1,,0,,,,
3154 2,,片山入口,,32.989134,131.8901195,3154 2,,0,,,,
3155 9,,海崎入口,,32.991521,131.8884315,3155 9,,0,,,,
3156 9,,海崎駅,,32.996141,131.8883978,3156 9,,0,,,,
3157 1,,八幡公民館前,,32.9997428,131.8894182,3157 1,,0,,,,
3157 2,,八幡公民館前,,33.0000211,131.8893075,3157 2,,0,,,,
3158 1,,戸穴,,33.0011796,131.89076,3158 1,,0,,,,
3158 2,,戸穴,,33.0012138,131.8905461,3158 2,,0,,,,
3159 9,,笹良目,,33.0026094,131.8959637,3159 9,,0,,,,
316 1,,八坂,,33.2546238,131.6845392,316 1,,0,,,,
316 2,,八坂,,33.25431,131.6845367,316 2,,0,,,,
3160 9,,代後,,33.0041282,131.8985597,3160 9,,0,,,,
3161 9,,中河原,,33.0066438,131.8984958,3161 9,,0,,,,
3162 1,,宮の内,,33.0107543,131.9011867,3162 1,,0,,,,
3162 2,,宮の内,,33.0107239,131.9010319,3162 2,,0,,,,
3163 9,,狩生,,33.01409148,131.9038164,3163 9,,0,,,,
3164 9,,車,,33.0158027,131.9057171,3164 9,,0,,,,
3165 9,,風無,,33.0166877,131.9089402,3165 9,,0,,,,
3166 9,,古江,,33.0211277,131.9127008,3166 9,,0,,,,
3167 9,,晞干,,33.023347,131.9162112,3167 9,,0,,,,
3168 1,,浪太,,33.0288845,131.9197588,3168 1,,0,,,,
3168 2,,浪太,,33.0292218,131.91959,3168 2,,0,,,,
3169 9,,運動公園前,,33.032391,131.9211624,3169 9,,0,,,,
317 9,,新港,,33.2582983,131.6883851,317 9,,0,,,,
3170 9,,浅海井,,33.04300535,131.9204803,3170 9,,0,,,,
3171 9,,上浦地区公民館前,,33.0454218,131.9227967,3171 9,,0,,,,
3172 9,,東雲校前,,33.0470527,131.9255906,3172 9,,0,,,,
3173 9,,津井入口,,33.0518338,131.927817,3173 9,,0,,,,
3174 9,,上浦振興局前,,33.0531314,131.9299628,3174 9,,0,,,,
3175 9,,津井,,33.0535295,131.9316973,3175 9,,0,,,,
3176 9,,海洋水産研究センター,,33.05220461,131.9347787,3176 9,,0,,,,
3177 9,,瀬会海水浴場,,33.0520072,131.939249,3177 9,,0,,,,
3178 9,,夏井じげ,,33.0539271,131.9429366,3178 9,,0,,,,
3179 9,,夏井大地ヶ浦,,33.0531901,131.9459911,3179 9,,0,,,,
318 1,,三佐,,33.2617736,131.6888727,318 1,,0,,,,
3180 9,,夏井横平,,33.05007177,131.9497609,3180 9,,0,,,,
3181 9,,長田,,33.0515463,131.9565637,3181 9,,0,,,,
3183 9,,福泊,,33.05325541,131.986991,3183 9,,0,,,,
3184 2,,蒲戸,,33.0566734,131.9954394,3184 2,,0,,,,
3184 9,,蒲戸,,33.0565982,131.9954689,3184 9,,0,,,,
3185 9,,蒲戸崎展望台入口,,33.0590672,132.0045353,3185 9,,0,,,,
3186 2,,大浜入口,,33.06573766,132.0015392,3186 2,,0,,,,
3186 9,,大浜入口,,33.06573766,132.0015392,3186 9,,0,,,,
319 1,,板屋町,,33.2527016,131.6832879,319 1,,0,,,,
319 2,,板屋町,,33.2521455,131.6834237,319 2,,0,,,,
3191 9,,茶屋ヶ鼻,,32.9438464,131.9083301,3191 9,,0,,,,
3192 9,,鳥越,,32.9456134,131.9125743,3192 9,,0,,,,
3193 9,,入江橋,,32.94694894,131.9194015,3193 9,,0,,,,
3194 9,,東入口,,32.94708228,131.9210014,3194 9,,0,,,,
3195 9,,三九郎谷,,32.9501544,131.9239864,3195 9,,0,,,,
3196 9,,東灘,,32.9526622,131.9254124,3196 9,,0,,,,
3197 9,,下の浜,,32.9547411,131.9277975,3197 9,,0,,,,
3198 9,,吹浦,,32.95213206,131.9394329,3198 9,,0,,,,
3199 9,,央区前,,32.9532149,131.9405344,3199 9,,0,,,,
320 1,,中洲,,33.2493367,131.6831756,320 1,,0,,,,
320 2,,中洲,,33.2494219,131.6832932,320 2,,0,,,,
3200 9,,大河原,,32.9549782,131.9442626,3200 9,,0,,,,
3201 9,,鯛網代,,32.9575877,131.9457697,3201 9,,0,,,,
3202 9,,外小浦,,32.9504391,131.9541851,3202 9,,0,,,,
3203 9,,中小浦,,32.9491996,131.9556895,3203 9,,0,,,,
3204 9,,地松浦入口,,32.9471107,131.9579274,3204 9,,0,,,,
3205 9,,地松浦,,32.9456073,131.9592358,3205 9,,0,,,,
3206 9,,鶴見振興局入口,,32.9446499,131.9601315,3206 9,,0,,,,
3207 2,,鶴見地区公民館前,,32.9428316,131.9625621,3207 2,,0,,,,
3207 9,,鶴見地区公民館前,,32.9427422,131.9626506,3207 9,,0,,,,
321 1,,住友前,,33.24512959,131.6835074,321 1,,0,,,,
321 2,,住友前,,33.2446963,131.683724,321 2,,0,,,,
322 1,,寺司公民館入口,,33.2415633,131.6835075,322 1,,0,,,,
322 2,,寺司公民館入口,,33.2419633,131.6837408,322 2,,0,,,,
3231 9,,築良田,,32.9301899,131.9265153,3231 9,,0,,,,
3232 9,,岡の下,,32.92718462,131.9330346,3232 9,,0,,,,
3233 9,,岡,,32.9262694,131.9352293,3233 9,,0,,,,
3234 1,,原,,32.9250109,131.93965,3234 1,,0,,,,
3234 2,,原,,32.9250709,131.9395578,3234 2,,0,,,,
3235 9,,大野,,32.9252829,131.9434983,3235 9,,0,,,,
3236 9,,松浦越,,32.9266021,131.9501692,3236 9,,0,,,,
3237 9,,木場,,32.92188588,131.9726149,3237 9,,0,,,,
3238 9,,浦代,,32.9215522,131.9749242,3238 9,,0,,,,
3239 9,,浦代東,,32.9233565,131.9777321,3239 9,,0,,,,
3240 9,,米水津小学校前,,32.9219527,131.979331,3240 9,,0,,,,
3241 9,,久保浦,,32.9214026,131.9848779,3241 9,,0,,,,
3242 9,,潮月寺下,,32.92376927,131.9877136,3242 9,,0,,,,
3243 9,,竹の浦,,32.92431924,131.9892634,3243 9,,0,,,,
3244 9,,樫の浦,,32.9221705,131.993347,3244 9,,0,,,,
3245 9,,粟嶋神社前,,32.9213482,131.9946104,3245 9,,0,,,,
3246 9,,小浦,,32.9197978,131.9941268,3246 9,,0,,,,
3247 9,,米水津振興局,,32.9209534,131.9753701,3247 9,,0,,,,
3252 9,,田鶴音,,32.9173759,131.9787025,3252 9,,0,,,,
3253 1,,米水津中学校前,,32.9160173,131.980177,3253 1,,0,,,,
3254 9,,大内浦,,32.9001461,131.9840632,3254 9,,0,,,,
3255 9,,宮の下,,32.894095,131.9844649,3255 9,,0,,,,
3256 9,,色利,,32.89230592,131.9845153,3256 9,,0,,,,
3257 9,,古庵,,32.8904203,131.9843473,3257 9,,0,,,,
3258 9,,色宮小学校入口,,32.8886422,131.9866076,3258 9,,0,,,,
3259 9,,水産基地前,,32.8886546,131.988536,3259 9,,0,,,,
3260 9,,宮ノ浦,,32.8900378,131.993362,3260 9,,0,,,,
3271 1,,広小路,,32.95591422,131.8954197,3271 1,,0,,,,
3271 2,,広小路,,32.955152,131.8952585,3271 2,,0,,,,
3272 1,,船頭町,,32.9542217,131.8949516,3272 1,,0,,,,
3272 2,,船頭町,,32.95404775,131.8952198,3272 2,,0,,,,
3273 1,,池船,,32.9523381,131.8945274,3273 1,,0,,,,
3273 2,,池船,,32.952339,131.8946446,3273 2,,0,,,,
3275 1,,蛇崎西,,32.947169,131.8994748,3275 1,,0,,,,
3275 2,,蛇崎西,,32.9472749,131.8994814,3275 2,,0,,,,
3276 1,,蛇崎,,32.9459756,131.9017683,3276 1,,0,,,,
3276 2,,蛇崎,,32.94618204,131.901703,3276 2,,0,,,,
3277 9,,茶屋ヶ鼻,,32.9431658,131.9075693,3277 9,,0,,,,
3278 9,,津志河内橋,,32.94178268,131.9111524,3278 9,,0,,,,
3279 9,,須留木,,32.9360238,131.9189712,3279 9,,0,,,,
3280 9,,土井,,32.9330631,131.9222287,3280 9,,0,,,,
3281 9,,角道,,32.9303567,131.9215186,3281 9,,0,,,,
3282 9,,岡山入口,,32.92820098,131.9219521,3282 9,,0,,,,
3283 9,,狐窪,,32.92362,131.9263987,3283 9,,0,,,,
3284 9,,西の平,,32.9198045,131.9274687,3284 9,,0,,,,
3285 9,,桟敷,,32.91750224,131.9282021,3285 9,,0,,,,
3286 9,,向津留入口,,32.9143911,131.9284255,3286 9,,0,,,,
3287 9,,永野,,32.9108174,131.9298909,3287 9,,0,,,,
3288 9,,小中尾入口,,32.90617018,131.931919,3288 9,,0,,,,
3289 9,,大中尾,,32.9041504,131.9330364,3289 9,,0,,,,
3290 1,,尾浦トンネル入口,,32.8707186,131.9549192,3290 1,,0,,,,
3290 9,,尾浦トンネル入口,,32.8699083,131.9549386,3290 9,,0,,,,
3291 9,,福網代,,32.8644867,131.9505236,3291 9,,0,,,,
3292 9,,中津留,,32.8603313,131.9476031,3292 9,,0,,,,
3293 9,,田中,,32.8578164,131.9481981,3293 9,,0,,,,
3294 9,,畑野浦,,32.8556765,131.9490998,3294 9,,0,,,,
3295 9,,船付場,,32.8539389,131.9493953,3295 9,,0,,,,
3296 9,,市場前,,32.8506852,131.9493741,3296 9,,0,,,,
3297 9,,一本橋,,32.8485832,131.9510283,3297 9,,0,,,,
3298 9,,大向,,32.8374331,131.9443841,3298 9,,0,,,,
3299 9,,楠本,,32.83531127,131.9419881,3299 9,,0,,,,
33 3,,大分駅前,,33.2337921,131.6068194,33 3,,0,,,,3
3300 9,,下の谷,,32.8341371,131.9472393,3300 9,,0,,,,
3301 9,,正金,,32.8352189,131.9535169,3301 9,,0,,,,
3302 9,,灘,,32.8282756,131.9595357,3302 9,,0,,,,
3303 9,,ひめみぎ,,32.822763,131.9610871,3303 9,,0,,,,
3304 9,,河内,,32.8186911,131.9626357,3304 9,,0,,,,
3309 9,,長津留,,32.799899,131.9307673,3309 9,,0,,,,
331 1,,裏川,,33.2445,131.6352516,331 1,,0,,,,
3310 9,,中村入口,,32.7970225,131.9282275,3310 9,,0,,,,
3311 9,,蒲江,,32.797695,131.9260474,3311 9,,0,,,,
3312 9,,蒲江郵便局前,,32.8008331,131.9257454,3312 9,,0,,,,
332 1,,東浜,,33.2466619,131.6350687,332 1,,0,,,,
333 1,,東浜入口,,33.2464779,131.6332195,333 1,,0,,,,
3330 9,,道の駅かまえ,,32.8021491,131.9247244,3330 9,,0,,,,
3331 9,,尾浦,,32.8677721,131.9738356,3331 9,,0,,,,
3332 9,,市営住宅尾浦団地前,,32.8645379,131.9722536,3332 9,,0,,,,
3333 9,,共栄橋,,32.7979053,131.9270242,3333 9,,0,,,,
334 1,,天満宮入口,,33.2449842,131.6331526,334 1,,0,,,,
3341 9,,東中浜,,32.8196597,131.9656199,3341 9,,0,,,,
3342 9,,久保浦,,32.8218465,131.9682462,3342 9,,0,,,,
3343 9,,西集会場前,,32.8246574,131.9806159,3343 9,,0,,,,
3344 9,,西野浦東,,32.82524,131.9828476,3344 9,,0,,,,
3345 2,,仲川原,,32.8282744,131.9860085,3345 2,,0,,,,
3345 9,,仲川原,,32.8281942,131.9861761,3345 9,,0,,,,
3346 9,,越ノ浦,,32.824413,131.9768344,3346 9,,0,,,,
3361 9,,農協前,,32.9477746,131.8902966,3361 9,,0,,,,
3362 9,,匠南団地入口,,32.9461476,131.8892456,3362 9,,0,,,,
3363 9,,中山,,32.94309879,131.8872877,3363 9,,0,,,,
3364 1,,東中山,,32.9397745,131.8835274,3364 1,,0,,,,
3364 2,,東中山,,32.9397173,131.883751,3364 2,,0,,,,
3365 9,,田淵,,32.9377031,131.8805919,3365 9,,0,,,,
3366 9,,汐月,,32.9328515,131.8778095,3366 9,,0,,,,
3367 9,,宇山,,32.93004999,131.8764058,3367 9,,0,,,,
3368 9,,泥谷,,32.92446723,131.8747062,3368 9,,0,,,,
3369 9,,波越,,32.9191603,131.8771097,3369 9,,0,,,,
3370 9,,西野入口,,32.9168586,131.8769218,3370 9,,0,,,,
3371 9,,波越入口,,32.9142724,131.8768655,3371 9,,0,,,,
3372 9,,石打,,32.9082127,131.876685,3372 9,,0,,,,
3373 9,,下府坂,,32.9051066,131.8717377,3373 9,,0,,,,
3374 9,,府坂,,32.9041179,131.8674428,3374 9,,0,,,,
3375 9,,竹角,,32.9013896,131.8669675,3375 9,,0,,,,
3376 9,,棚野,,32.89435365,131.8670249,3376 9,,0,,,,
3377 9,,市福所,,32.8896197,131.8676107,3377 9,,0,,,,
3378 9,,川井,,32.8849165,131.8693616,3378 9,,0,,,,
3379 9,,谷川,,32.8779358,131.880498,3379 9,,0,,,,
3380 9,,山口,,32.8748638,131.8866806,3380 9,,0,,,,
3381 9,,大野,,32.8670336,131.8880427,3381 9,,0,,,,
3382 9,,山口橋,,32.8639707,131.8876738,3382 9,,0,,,,
3383 9,,三軒屋,,32.8577617,131.8886636,3383 9,,0,,,,
3384 9,,轟峠,,32.8281022,131.9163331,3384 9,,0,,,,
3385 9,,上河内,,32.8051871,131.9225424,3385 9,,0,,,,
3386 9,,下河内,,32.8026616,131.9236406,3386 9,,0,,,,
3387 1,,蒲江トンネル入口,,32.801151,131.9262567,3387 1,,0,,,,
3387 2,,蒲江トンネル入口,,32.8010406,131.9262318,3387 2,,0,,,,
3391 1,,門田,,32.95264696,131.8413244,3391 1,,0,,,,
3391 2,,門田,,32.9516799,131.8404607,3391 2,,0,,,,
3392 1,,上門田,,32.94834735,131.8369583,3392 1,,0,,,,
3392 2,,上門田,,32.9481844,131.8369496,3392 2,,0,,,,
3393 9,,久土入口,,32.9439446,131.8334205,3393 9,,0,,,,
3394 9,,祇園,,32.9420935,131.8315079,3394 9,,0,,,,
3395 9,,上祇園,,32.9405283,131.8301789,3395 9,,0,,,,
3396 1,,江良,,32.9383861,131.8276633,3396 1,,0,,,,
3396 2,,江良,,32.9381694,131.8276126,3396 2,,0,,,,
3397 1,,堤内,,32.9363254,131.8254688,3397 1,,0,,,,
3397 2,,堤内,,32.9359652,131.825286,3397 2,,0,,,,
3398 1,,下の口,,32.92938221,131.8082115,3398 1,,0,,,,
3398 2,,下の口,,32.93028213,131.8092781,3398 2,,0,,,,
3399 9,,直見駅前,,32.9277132,131.8067405,3399 9,,0,,,,
34 4,,大分駅前,,33.2342552,131.6069834,34 4,,0,,,,4
3400 1,,道越入口,,32.9215507,131.8010931,3400 1,,0,,,,
3400 2,,道越入口,,32.9218756,131.8013459,3400 2,,0,,,,
3401 9,,水口入口,,32.9142699,131.796872,3401 9,,0,,,,
3402 1,,間庭,,32.9111058,131.7964362,3402 1,,0,,,,
3402 2,,間庭,,32.9105117,131.7967023,3402 2,,0,,,,
3403 9,,河内入口,,32.90746766,131.7953303,3403 9,,0,,,,
3404 9,,中津留,,32.902708,131.7906144,3404 9,,0,,,,
3405 9,,宮の下,,32.90068496,131.7904143,3405 9,,0,,,,
3406 1,,向船場,,32.8995895,131.7856164,3406 1,,0,,,,
3406 2,,向船場,,32.8995658,131.7852482,3406 2,,0,,,,
3407 1,,直川駅前,,32.8995516,131.7812058,3407 1,,0,,,,
3407 2,,直川駅前,,32.8994649,131.7812707,3407 2,,0,,,,
3408 1,,直川振興局入口,,32.8954821,131.7781955,3408 1,,0,,,,
3408 2,,直川振興局入口,,32.8953804,131.7782032,3408 2,,0,,,,
341 1,,萩原堺町,,33.2434227,131.6374791,341 1,,0,,,,
341 2,,萩原堺町,,33.2436687,131.6377434,341 2,,0,,,,
342 1,,萩原住吉町,,33.2454524,131.6396649,342 1,,0,,,,
342 2,,萩原住吉町,,33.24536213,131.6394777,342 2,,0,,,,
343 1,,萩原本町,,33.245787,131.6422361,343 1,,0,,,,
343 2,,萩原本町,,33.2456879,131.6421931,343 2,,0,,,,
344 1,,萩原東町,,33.2460761,131.6444957,344 1,,0,,,,
344 2,,萩原東町,,33.2460122,131.6445439,344 2,,0,,,,
345 1,,新貝西,,33.24644548,131.647127,345 1,,0,,,,
345 2,,新貝西,,33.2462904,131.6466702,345 2,,0,,,,
3455 9,,直川振興局,,32.8963041,131.7788,3455 9,,0,,,,
346 1,,新貝天満社前,,33.24674549,131.6496101,346 1,,0,,,,
346 2,,新貝天満社前,,33.24661217,131.6496268,346 2,,0,,,,
347 1,,浄安寺前,,33.2470591,131.6521982,347 1,,0,,,,
347 2,,浄安寺前,,33.2469415,131.6520533,347 2,,0,,,,
348 1,,横町,,33.2474577,131.6551644,348 1,,0,,,,
348 2,,横町,,33.24731219,131.6548596,348 2,,0,,,,
349 1,,新高松,,33.2478308,131.658285,349 1,,0,,,,
349 2,,新高松,,33.2477471,131.6582948,349 2,,0,,,,
35 5,,大分駅前,,33.2341409,131.6068181,35 5,,0,,,,5
350 1,,花高松,,33.2477425,131.6611828,350 1,,0,,,,
350 2,,花高松,,33.24804554,131.6605925,350 2,,0,,,,
3507 9,,道の駅やよい,,32.9645623,131.8384741,3507 9,,0,,,,
351 1,,花高松２,,33.2484122,131.662209,351 1,,0,,,,
351 2,,花高松２,,33.2483289,131.6623423,351 2,,0,,,,
352 1,,日岡橋,,33.248759,131.6637808,352 1,,0,,,,
352 2,,日岡橋,,33.2486813,131.6637973,352 2,,0,,,,
353 1,,日吉公園前,,33.247184,131.6615844,353 1,,0,,,,
353 2,,日吉公園前,,33.2471256,131.6616501,353 2,,0,,,,
354 1,,寺崎町一丁目,,33.2463625,131.6638465,354 1,,0,,,,
354 2,,寺崎町一丁目,,33.2462941,131.6638475,354 2,,0,,,,
355 1,,寺崎町二丁目,,33.2462433,131.6656098,355 1,,0,,,,
355 2,,寺崎町二丁目,,33.2462115,131.6657925,355 2,,0,,,,
356 1,,三川下一丁目,,33.2469879,131.6675929,356 1,,0,,,,
356 2,,三川下一丁目,,33.2468293,131.6673992,356 2,,0,,,,
357 1,,三川下公民館前,,33.2475769,131.6691258,357 1,,0,,,,
357 2,,三川下公民館前,,33.2474615,131.6690685,357 2,,0,,,,
358 1,,三ッ川下,,33.2488462,131.6697371,358 1,,0,,,,
358 2,,三ッ川下,,33.2485072,131.6697088,358 2,,0,,,,
359 1,,海原橋西,,33.2502847,131.6704055,359 1,,0,,,,
359 2,,海原橋西,,33.25017882,131.6704082,359 2,,0,,,,
36 6,,大分駅前,,33.2340116,131.6067365,36 6,,0,,,,6
360 1,,海原橋東,,33.2508035,131.6757718,360 1,,0,,,,
360 2,,海原橋東,,33.2505433,131.6754421,360 2,,0,,,,
361 1,,秋,,33.25132881,131.6769743,361 1,,0,,,,
361 2,,秋,,33.2512673,131.6771162,361 2,,0,,,,
362 1,,浜浦,,33.25151216,131.6792907,362 1,,0,,,,
362 2,,浜浦,,33.2514069,131.6791193,362 2,,0,,,,
363 1,,三佐郵便局前,,33.25141222,131.6820405,363 1,,0,,,,
363 2,,三佐郵便局前,,33.25126224,131.6817905,363 2,,0,,,,
371 1,,牧,,33.2390418,131.6364128,371 1,,0,,,,
371 2,,牧,,33.2389858,131.6362131,371 2,,0,,,,
372 1,,尾西,,33.2357801,131.6377288,372 1,,0,,,,
372 2,,尾西,,33.2357923,131.6379405,372 2,,0,,,,
373 1,,大迫,,33.2366142,131.6391109,373 1,,0,,,,
373 2,,大迫,,33.2364943,131.6390344,373 2,,0,,,,
374 1,,平,,33.2373141,131.6406069,374 1,,0,,,,
374 2,,平,,33.23722968,131.6405779,374 2,,0,,,,
375 1,,城東中学校前,,33.23879628,131.6459608,375 1,,0,,,,
375 2,,城東中学校前,,33.23866296,131.6459108,375 2,,0,,,,
376 1,,高城西,,33.2396304,131.6488101,376 1,,0,,,,
376 2,,高城西,,33.23939626,131.6484439,376 2,,0,,,,
377 1,,高城東,,33.2401824,131.6503157,377 1,,0,,,,
377 2,,高城東,,33.2401584,131.650716,377 2,,0,,,,
378 1,,岡,,33.2412801,131.6544827,378 1,,0,,,,
378 2,,岡,,33.2408076,131.653116,378 2,,0,,,,
379 1,,高城南町,,33.2421567,131.6586508,379 1,,0,,,,
379 2,,高城南町,,33.2420715,131.65846,379 2,,0,,,,
38 8,,大分駅前,,33.2351341,131.6064108,38 8,,0,,,,8
380 1,,仲西町,,33.2422088,131.6614083,380 1,,0,,,,
380 2,,仲西町,,33.2421116,131.6612021,380 2,,0,,,,
381 1,,真光寺,,33.242244,131.6641135,381 1,,0,,,,
381 2,,真光寺,,33.2421629,131.6643924,381 2,,0,,,,
382 1,,小池原,,33.2377948,131.6657432,382 1,,0,,,,
382 2,,小池原,,33.23813002,131.6656592,382 2,,0,,,,
383 9,,丸田,,33.23429709,131.6649761,383 9,,0,,,,
384 9,,松原,,33.22964758,131.6648763,384 9,,0,,,,
385 9,,猪野下,,33.2253979,131.6645974,385 9,,0,,,,
386 9,,猪野,,33.2218039,131.6645978,386 9,,0,,,,
391 1,,乙津,,33.2400744,131.6767809,391 1,,0,,,,
391 2,,乙津,,33.2401185,131.6766766,391 2,,0,,,,
392 1,,皆春団地,,33.2372137,131.6769083,392 1,,0,,,,
392 2,,皆春団地,,33.2373178,131.6768242,392 2,,0,,,,
393 1,,後田,,33.2348875,131.6769299,393 1,,0,,,,
393 2,,後田,,33.2348074,131.6770179,393 2,,0,,,,
401 9,,国宗,,33.23804719,131.6938902,401 9,,0,,,,
402 1,,上国宗,,33.2349128,131.6932509,402 1,,0,,,,
402 2,,上国宗,,33.23486419,131.693057,402 2,,0,,,,
403 9,,竹藤,,33.2273318,131.6916332,403 9,,0,,,,
404 9,,堂園,,33.2221155,131.6908411,404 9,,0,,,,
405 1,,常行北,,33.2189711,131.6901183,405 1,,0,,,,
405 2,,常行北,,33.2189431,131.6900058,405 2,,0,,,,
406 1,,常行,,33.2158359,131.6894018,406 1,,0,,,,
406 2,,常行,,33.2153492,131.6891705,406 2,,0,,,,
407 9,,関門,,33.2131281,131.6900731,407 9,,0,,,,
411 9,,下徳丸,,33.2087336,131.6897918,411 9,,0,,,,
412 1,,丸亀,,33.2026662,131.689189,412 1,,0,,,,
412 2,,丸亀,,33.2026685,131.6891883,412 2,,0,,,,
42 99,,大分駅前,,33.2338003,131.6071961,42 99,,0,,,,
421 1,,志村,,33.2377362,131.7004164,421 1,,0,,,,
421 2,,志村,,33.2370744,131.7005392,421 2,,0,,,,
422 1,,木田重機前,,33.2284983,131.70134,422 1,,0,,,,
422 2,,木田重機前,,33.2284272,131.7012155,422 2,,0,,,,
423 1,,迫,,33.2246417,131.6998068,423 1,,0,,,,
423 2,,迫,,33.22468206,131.6996903,423 2,,0,,,,
424 1,,陽光台北,,33.22389886,131.7025734,424 1,,0,,,,
424 2,,陽光台北,,33.223803,131.7025428,424 2,,0,,,,
425 1,,陽光台東,,33.2220615,131.7028043,425 1,,0,,,,
425 2,,陽光台東,,33.2221205,131.7027356,425 2,,0,,,,
426 1,,陽光台南,,33.2216348,131.7010158,426 1,,0,,,,
426 2,,陽光台南,,33.2216959,131.7011483,426 2,,0,,,,
427 1,,種具,,33.2189299,131.6991803,427 1,,0,,,,
428 1,,百堂,,33.208116,131.6992616,428 1,,0,,,,
428 2,,百堂,,33.20808382,131.6990911,428 2,,0,,,,
429 1,,上種具,,33.2065189,131.6986727,429 1,,0,,,,
429 2,,上種具,,33.2063173,131.6984412,429 2,,0,,,,
430 1,,川添橋,,33.2036401,131.6976688,430 1,,0,,,,
430 2,,川添橋,,33.20311766,131.6973415,430 2,,0,,,,
50 1,,金池ターミナル,,33.2349128,131.6109805,50 1,,0,,,,
5001 9,,嶺,,33.137687,131.6615567,5001 9,,0,,,,
5002 1,,梅が丘二丁目北,,33.1218476,131.6814748,5002 1,,0,,,,
5002 2,,梅が丘二丁目北,,33.1218845,131.6813705,5002 2,,0,,,,
5003 9,,梅が丘一丁目,,33.1211087,131.6800523,5003 9,,0,,,,
5004 1,,梅が丘公園前,,33.1195121,131.681338,5004 1,,0,,,,
5004 2,,梅が丘公園前,,33.11945966,131.6813966,5004 2,,0,,,,
5005 1,,梅が丘二丁目南,,33.1204671,131.6825139,5005 1,,0,,,,
5005 2,,梅が丘二丁目南,,33.1203736,131.6825313,5005 2,,0,,,,
5006 1,,杉原,,33.1168982,131.6855869,5006 1,,0,,,,
5006 2,,杉原,,33.1166604,131.6858088,5006 2,,0,,,,
5007 1,,奥,,33.115965,131.6881919,5007 1,,0,,,,
5007 2,,奥,,33.1156999,131.6887756,5007 2,,0,,,,
5008 1,,よしの診療所入口,,33.1144484,131.6898707,5008 1,,0,,,,
5008 2,,よしの診療所入口,,33.11426036,131.6898629,5008 2,,0,,,,
5009 1,,吉野,,33.1129885,131.6938624,5009 1,,0,,,,
5009 2,,吉野,,33.1128445,131.694181,5009 2,,0,,,,
501 1,,金池,,33.2327248,131.6111772,501 1,,0,,,,
501 2,,金池,,33.2326963,131.6106234,501 2,,0,,,,
5010 9,,月形,,33.11356056,131.6965957,5010 9,,0,,,,
5011 1,,平田,,33.1155731,131.7007796,5011 1,,0,,,,
5011 2,,平田,,33.1154295,131.7008433,5011 2,,0,,,,
5012 9,,石川野,,33.11191089,131.7057616,5012 9,,0,,,,
5013 9,,明法寺,,33.1111116,131.7089268,5013 9,,0,,,,
5014 9,,上松,,33.1135102,131.7251211,5014 9,,0,,,,
5015 1,,鍛治屋橋,,33.1128012,131.7274195,5015 1,,0,,,,
5015 2,,鍛治屋橋,,33.112672,131.7273399,5015 2,,0,,,,
5016 1,,岩屋川,,33.1081531,131.7310061,5016 1,,0,,,,
5016 2,,岩屋川,,33.1084023,131.7305077,5016 2,,0,,,,
5017 1,,中臼杵,,33.1043848,131.7308277,5017 1,,0,,,,
5017 2,,中臼杵,,33.10451212,131.7306766,5017 2,,0,,,,
5018 1,,広原,,33.1001188,131.7347961,5018 1,,0,,,,
5018 2,,広原,,33.0996458,131.7343742,5018 2,,0,,,,
502 1,,顕徳町,,33.2322219,131.613915,502 1,,0,,,,
502 2,,顕徳町,,33.2319485,131.615017,502 2,,0,,,,
5020 1,,障子岩,,33.0927214,131.7411902,5020 1,,0,,,,
5020 2,,障子岩,,33.09259691,131.7409929,5020 2,,0,,,,
5021 1,,籠の瀬,,33.0949515,131.7475455,5021 1,,0,,,,
5021 2,,籠の瀬,,33.0947988,131.7474515,5021 2,,0,,,,
5022 1,,竹場,,33.0938976,131.7576834,5022 1,,0,,,,
5022 2,,竹場,,33.09396371,131.7571249,5022 2,,0,,,,
5023 1,,深田,,33.09461373,131.7625244,5023 1,,0,,,,
5023 2,,深田,,33.09474707,131.7634743,5023 2,,0,,,,
5024 2,,臼杵石仏,,33.091864,131.7621745,5024 2,,0,,,,
5025 1,,望月,,33.09819681,131.7694903,5025 1,,0,,,,
5025 2,,望月,,33.0982378,131.7697536,5025 2,,0,,,,
5027 1,,粟手原,,33.10269633,131.7700067,5027 1,,0,,,,
5027 2,,粟手原,,33.102613,131.7702373,5027 2,,0,,,,
5028 1,,清太郎,,33.10681261,131.772723,5028 1,,0,,,,
5028 2,,清太郎,,33.1067397,131.7728362,5028 2,,0,,,,
5029 1,,白馬渓,,33.10876245,131.7758893,5029 1,,0,,,,
5029 2,,白馬渓,,33.108599,131.7759526,5029 2,,0,,,,
503 1,,錦町三丁目,,33.2320799,131.6197966,503 1,,0,,,,
503 2,,錦町三丁目,,33.2318426,131.6204955,503 2,,0,,,,
5030 1,,野田入口,,33.1100457,131.7795223,5030 1,,0,,,,
5030 2,,野田入口,,33.109862,131.7795696,5030 2,,0,,,,
5031 1,,手無地蔵,,33.1114151,131.7833074,5031 1,,0,,,,
5031 2,,手無地蔵,,33.11124565,131.7833886,5031 2,,0,,,,
5032 1,,温井入口,,33.112769,131.7871694,5032 1,,0,,,,
5032 2,,温井入口,,33.1127025,131.7872363,5032 2,,0,,,,
5033 1,,土橋,,33.1145894,131.7919974,5033 1,,0,,,,
5033 2,,土橋,,33.1141766,131.791308,5033 2,,0,,,,
5035 1,,平清水,,33.1173701,131.7950456,5035 1,,0,,,,
5035 2,,平清水,,33.1174546,131.795232,5035 2,,0,,,,
5036 1,,住吉橋,,33.1197972,131.7957766,5036 1,,0,,,,
5036 2,,住吉橋,,33.11949499,131.7957705,5036 2,,0,,,,
5037 1,,辻口,,33.12224477,131.8004866,5037 1,,0,,,,
5037 2,,辻口,,33.1220545,131.7995041,5037 2,,0,,,,
5039 1,,城北,,33.12292811,131.8045696,5039 1,,0,,,,
5039 2,,城北,,33.1225856,131.8033537,5039 2,,0,,,,
504 1,,滝尾橋東,,33.2320975,131.627149,504 1,,0,,,,
504 2,,滝尾橋東,,33.2319678,131.6270552,504 2,,0,,,,
5044 1,,城南,,33.1215942,131.8059928,5044 1,,0,,,,
5044 2,,城南,,33.121375,131.8061577,5044 2,,0,,,,
5045 1,,臼杵駅,,33.11869527,131.8072862,5045 1,,0,,,,
5047 1,,ロングヒル入口,,33.1226187,131.6824029,5047 1,,0,,,,
5047 2,,ロングヒル入口,,33.1226079,131.6823191,5047 2,,0,,,,
5048 9,,臼杵港フェリーターミナル,,33.1227779,131.8165695,5048 9,,0,,,,
505 1,,北下郡,,33.231833,131.6303915,505 1,,0,,,,
505 2,,北下郡,,33.2317181,131.6300957,505 2,,0,,,,
506 1,,上北下郡,,33.2317643,131.6327718,506 1,,0,,,,
506 2,,上北下郡,,33.2316507,131.6326064,506 2,,0,,,,
507 1,,加納,,33.231692,131.6357343,507 1,,0,,,,
507 2,,加納,,33.2315559,131.6364118,507 2,,0,,,,
507 3,,加納,,33.23041368,131.6369286,507 3,,0,,,,
508 3,,明野南町③,西町方面,33.22589767,131.6470613,508 3,,0,,,,
508 4,,明野南町④,西町～大分行,33.22574769,131.6471279,508 4,,0,,,,
509 1,,明野南町,,33.22568105,131.6480779,509 1,,0,,,,
509 2,,明野南町,,33.2255829,131.6479032,509 2,,0,,,,
51 1,,県庁正門前,,33.2374383,131.6119955,51 1,,0,,,,
51 2,,県庁正門前,,33.2377319,131.6117065,51 2,,0,,,,
510 1,,アクロス入口,,33.2251541,131.6524701,510 1,,0,,,,
510 2,,アクロス入口,,33.2251193,131.6528936,510 2,,0,,,,
5101 9,,清流橋,,33.1203526,131.8082472,5101 9,,0,,,,
5102 9,,下り松,,33.1208288,131.8133063,5102 9,,0,,,,
511 1,,明野北１丁目,,33.22571451,131.6555606,511 1,,0,,,,
511 2,,明野北１丁目,,33.225544,131.6556458,511 2,,0,,,,
512 1,,天然塚,,33.22553122,131.6572271,512 1,,0,,,,
512 2,,天然塚,,33.2253181,131.6571888,512 2,,0,,,,
513 1,,猪野,,33.222016,131.6630513,513 1,,0,,,,
513 2,,猪野,,33.2217623,131.6631958,513 2,,0,,,,
514 1,,勝負,,33.2189158,131.6680514,514 1,,0,,,,
514 2,,勝負,,33.21888212,131.6678932,514 2,,0,,,,
515 1,,殉教公園前,,33.2179348,131.66945,515 1,,0,,,,
515 2,,殉教公園前,,33.21764895,131.6696598,515 2,,0,,,,
516 1,,葛木入口,,33.2166158,131.6736595,516 1,,0,,,,
516 2,,葛木入口,,33.2165065,131.6735452,516 2,,0,,,,
517 1,,金の手,,33.21561599,131.6783258,517 1,,0,,,,
517 2,,金の手,,33.21529937,131.6789258,517 2,,0,,,,
518 9,,高田南,,33.2131872,131.6853923,518 9,,0,,,,
519 1,,関門,,33.21223322,131.6897917,519 1,,0,,,,
519 2,,関門,,33.21206657,131.689775,519 2,,0,,,,
52 1,,コンパルホール入口,,33.2356062,131.6121566,52 1,,0,,,,
52 2,,コンパルホール入口,,33.235476,131.6118867,52 2,,0,,,,
520 9,,高田小学校前,,33.2098405,131.6901643,520 9,,0,,,,
521 1,,興聖寺前,,33.2063474,131.6915334,521 1,,0,,,,
521 2,,興聖寺前,,33.2069661,131.6911577,521 2,,0,,,,
522 9,,上徳丸,,33.2041614,131.6926521,522 9,,0,,,,
523 1,,川添小学校前,,33.2008011,131.6970964,523 1,,0,,,,
523 2,,川添小学校前,,33.2008887,131.6970282,523 2,,0,,,,
524 1,,金谷,,33.1978669,131.6964374,524 1,,0,,,,
524 2,,金谷,,33.1978833,131.6963042,524 2,,0,,,,
525 3,,宮河内団地入口,,33.1923036,131.7035138,525 3,,0,,,,
525 9,,宮河内団地入口,,33.19276885,131.7020749,525 9,,0,,,,
526 1,,宮河内団地一丁目,,33.1915928,131.7016487,526 1,,0,,,,
527 1,,宮河内団地二丁目,,33.1910538,131.6987011,527 1,,0,,,,
528 1,,宮河内団地三丁目,,33.1893606,131.6981967,528 1,,0,,,,
529 1,,宮河内団地四丁目,,33.1891652,131.701792,529 1,,0,,,,
53 2,,金池,,33.2328297,131.6118472,53 2,,0,,,,
530 1,,ハイランド郵便局前,,33.1910387,131.7024214,530 1,,0,,,,
531 1,,赤迫,,33.1925779,131.7074787,531 1,,0,,,,
5361 1,,辻,,33.1201343,131.7998918,5361 1,,0,,,,
541 1,,別保橋,,33.2397821,131.6868819,541 1,,0,,,,
541 2,,別保橋,,33.239651,131.6866266,541 2,,0,,,,
542 1,,皆春,,33.2358716,131.684016,542 1,,0,,,,
542 2,,皆春,,33.2360604,131.6839198,542 2,,0,,,,
543 1,,門田,,33.2330186,131.6819968,543 1,,0,,,,
543 2,,門田,,33.2328592,131.6818649,543 2,,0,,,,
544 1,,上皆春,,33.2312438,131.681817,544 1,,0,,,,
544 2,,上皆春,,33.23169766,131.6817081,544 2,,0,,,,
545 1,,森町下,,33.2292281,131.6816201,545 1,,0,,,,
545 2,,森町下,,33.22927,131.6814751,545 2,,0,,,,
546 1,,別保小学校入口,,33.2279585,131.6814865,546 1,,0,,,,
546 2,,別保小学校入口,,33.227937,131.6813568,546 2,,0,,,,
547 1,,花の木団地入口,,33.22633156,131.6813417,547 1,,0,,,,
547 2,,花の木団地入口,,33.2260629,131.6811674,547 2,,0,,,,
548 1,,森町,,33.2244516,131.6811334,548 1,,0,,,,
548 2,,森町,,33.2250783,131.681064,548 2,,0,,,,
549 1,,森中村,,33.2217055,131.6808336,549 1,,0,,,,
549 2,,森中村,,33.2217112,131.6807203,549 2,,0,,,,
550 1,,森,,33.2199309,131.6806717,550 1,,0,,,,
550 2,,森,,33.2200713,131.6805598,550 2,,0,,,,
551 1,,大東団地入口,,33.2174786,131.6804179,551 1,,0,,,,
551 2,,大東団地入口,,33.2177102,131.6803152,551 2,,0,,,,
561 1,,金の手南,,33.2144961,131.6796322,561 1,,0,,,,
561 2,,金の手南,,33.2144326,131.679516,561 2,,0,,,,
562 1,,西寺,,33.20825011,131.6783428,562 1,,0,,,,
562 2,,西寺,,33.21044987,131.6782594,562 2,,0,,,,
563 1,,横尾,,33.2040169,131.67753,563 1,,0,,,,
563 2,,横尾,,33.2046868,131.677664,563 2,,0,,,,
564 1,,岡原団地入口,,33.1990151,131.6753948,564 1,,0,,,,
564 2,,岡原団地入口,,33.19940101,131.6754935,564 2,,0,,,,
565 1,,久保山下,,33.2129633,131.6736308,565 1,,0,,,,
565 2,,久保山下,,33.2130569,131.673643,565 2,,0,,,,
566 1,,下組公民館前,,33.21003315,131.6727099,566 1,,0,,,,
566 2,,下組公民館前,,33.2099843,131.6726118,566 2,,0,,,,
567 1,,中筋,,33.20710013,131.6724934,567 1,,0,,,,
567 2,,中筋,,33.2068835,131.6723556,567 2,,0,,,,
568 1,,有田下,,33.20408379,131.6729934,568 1,,0,,,,
568 2,,有田下,,33.203981,131.672965,568 2,,0,,,,
571 1,,栗流,,33.2239265,131.6654319,571 1,,0,,,,
571 2,,栗流,,33.22388155,131.6655098,571 2,,0,,,,
572 1,,浜田入口,,33.2286005,131.667385,572 1,,0,,,,
572 2,,浜田入口,,33.228486,131.6674985,572 2,,0,,,,
573 9,,ひまわり団地,,33.23084,131.6682596,573 9,,0,,,,
574 1,,北団地入口,,33.2324397,131.6699575,574 1,,0,,,,
574 2,,北団地入口,,33.23233072,131.6699424,574 2,,0,,,,
575 9,,明治北団地中,,33.2350782,131.6680317,575 9,,0,,,,
576 9,,桃園団地中,,33.2355217,131.6710181,576 9,,0,,,,
577 9,,桃園団地東入口,,33.2346799,131.673066,577 9,,0,,,,
578 1,,後田,,33.23409731,131.6764418,578 1,,0,,,,
578 2,,後田,,33.23399734,131.6774584,578 2,,0,,,,
579 1,,高畑,,33.2343073,131.6810665,579 1,,0,,,,
579 2,,高畑,,33.2342307,131.6805248,579 2,,0,,,,
60 9,,大分駅上野の森口,,33.23242959,131.6056977,60 9,,0,,,,
601 9,,明治農協前,,33.2182485,131.6644334,601 9,,0,,,,
602 1,,二目川下,,33.2141266,131.6635133,602 1,,0,,,,
602 2,,二目川下,,33.2143648,131.6634553,602 2,,0,,,,
603 9,,二目川,,33.2105529,131.6628812,603 9,,0,,,,
604 9,,土橋,,33.2088108,131.6626133,604 9,,0,,,,
605 9,,一里塚,,33.20661672,131.6650107,605 9,,0,,,,
606 9,,岡原,,33.2002893,131.6698847,606 9,,0,,,,
607 1,,毛井,,33.19348493,131.6730439,607 1,,0,,,,
607 2,,毛井,,33.1938508,131.6729923,607 2,,0,,,,
608 1,,竜泉寺前,,33.19196841,131.6724274,608 1,,0,,,,
608 2,,竜泉寺前,,33.19186842,131.6720941,608 2,,0,,,,
609 1,,片嶺,,33.18833544,131.6707777,609 1,,0,,,,
609 2,,片嶺,,33.18863541,131.670611,609 2,,0,,,,
610 1,,松岡,,33.1841151,131.6683305,610 1,,0,,,,
610 2,,松岡,,33.1842025,131.6680781,610 2,,0,,,,
611 1,,松岡小学校前,,33.18216937,131.6670616,611 1,,0,,,,
611 2,,松岡小学校前,,33.18208604,131.666695,611 2,,0,,,,
612 1,,菰田,,33.17783643,131.6632121,612 1,,0,,,,
612 2,,菰田,,33.17793642,131.6631288,612 2,,0,,,,
613 9,,池の上,,33.17465336,131.6587293,613 9,,0,,,,
614 9,,片野,,33.168346,131.6502217,614 9,,0,,,,
615 9,,居村,,33.1657123,131.6484734,615 9,,0,,,,
616 9,,判田橋,,33.16337102,131.6464142,616 9,,0,,,,
621 9,,船本入口,,33.177148,131.6648133,621 9,,0,,,,
622 9,,成松,,33.1767966,131.6672506,622 9,,0,,,,
623 1,,京地,,33.1763367,131.669195,623 1,,0,,,,
623 2,,京地,,33.1762221,131.6693287,623 2,,0,,,,
624 1,,尾津留,,33.16523789,131.6697955,624 1,,0,,,,
624 2,,尾津留,,33.16570451,131.6697288,624 2,,0,,,,
625 1,,楠木生,,33.1625676,131.6692085,625 1,,0,,,,
625 2,,楠木生,,33.16233819,131.6690124,625 2,,0,,,,
626 1,,けやき台入口,,33.1578053,131.667796,626 1,,0,,,,
626 2,,けやき台入口,,33.15748869,131.6681627,626 2,,0,,,,
627 1,,けやき台１丁目,,33.15428908,131.6705793,627 1,,0,,,,
627 2,,けやき台１丁目,,33.15422242,131.6707293,627 2,,0,,,,
628 1,,けやき台公園前,,33.1544369,131.6729758,628 1,,0,,,,
628 2,,けやき台公園前,,33.1543672,131.6728975,628 2,,0,,,,
629 1,,けやき台２丁目,,33.15363921,131.6744123,629 1,,0,,,,
629 2,,けやき台２丁目,,33.15358922,131.6742623,629 2,,0,,,,
630 1,,けやき台４丁目,,33.152039,131.6749116,630 1,,0,,,,
630 2,,けやき台４丁目,,33.15203939,131.6749124,630 2,,0,,,,
631 9,,塚原入口,,33.1785459,131.6713875,631 9,,0,,,,
632 9,,下松岡,,33.18310274,131.6747776,632 9,,0,,,,
633 1,,ジャパンセミコンダクター前,,33.1850844,131.6759495,633 1,,0,,,,
633 2,,ジャパンセミコンダクター前,,33.1850818,131.6759352,633 2,,0,,,,
9402 9,,鷲谷住宅前,,32.80103122,131.9200915,9402 9,,0,,,,
9403 9,,小向,,32.79748156,131.9178752,9403 9,,0,,,,
9404 9,,小蒲江,,32.7935377,131.90621,9404 9,,0,,,,
9405 9,,福戸鼻,,32.79683128,131.8977602,9405 9,,0,,,,
9406 9,,猪串,,32.80148082,131.9000431,9406 9,,0,,,,
9407 9,,インターパーク前,,32.8063635,131.8933935,9407 9,,0,,,,
9408 9,,森崎,,32.8054782,131.8903093,9408 9,,0,,,,
9409 9,,越田尾,,32.7922401,131.8845283,9409 9,,0,,,,
9410 9,,田尾の下,,32.7916479,131.8799626,9410 9,,0,,,,
9411 9,,名護屋漁協前,,32.791533,131.8761574,9411 9,,0,,,,
9412 9,,丸市尾,,32.7906443,131.8743364,9412 9,,0,,,,
9431 1,,直川中学校前,,32.8957022,131.7769229,9431 1,,0,,,,
9431 2,,直川中学校前,,32.8956147,131.7769061,9431 2,,0,,,,
9432 9,,神の原橋,,32.8958479,131.7726213,9432 9,,0,,,,
9433 9,,大鶴入口,,32.89383531,131.7681332,9433 9,,0,,,,
9434 9,,柚の原,,32.8832293,131.7598275,9434 9,,0,,,,
9436 9,,上の地,,32.8795367,131.7574927,9436 9,,0,,,,
9437 9,,岸の上,,32.8765634,131.7534864,9437 9,,0,,,,
9438 9,,下城,,32.8659926,131.7491952,9438 9,,0,,,,
9439 9,,椛ヶ原,,32.8617276,131.7460575,9439 9,,0,,,,
9440 9,,杭の内,,32.85850536,131.7458866,9440 9,,0,,,,
9441 9,,打水,,32.8490752,131.7306964,9441 9,,0,,,,
9442 9,,ドライブイン前,,32.84580629,131.7211226,9442 9,,0,,,,
9443 1,,大原,,32.84523961,131.7168563,9443 1,,0,,,,
9443 2,,大原,,32.8452063,131.7179729,9443 2,,0,,,,
9444 9,,重岡駅,,32.8407673,131.7157614,9444 9,,0,,,,
9446 9,,仲山,,32.84715602,131.7137232,9446 9,,0,,,,
9447 9,,内田,,32.8492696,131.6975311,9447 9,,0,,,,
9448 9,,塩見園,,32.85165518,131.6932247,9448 9,,0,,,,
9449 9,,花木,,32.8584091,131.6923635,9449 9,,0,,,,
9450 9,,柿木,,32.8577255,131.6820433,9450 9,,0,,,,
9451 9,,千束,,32.8545063,131.6788981,9451 9,,0,,,,
9452 9,,上千束,,32.85807085,131.6756758,9452 9,,0,,,,
9453 1,,緑豊小学校入口,,32.8585197,131.6744426,9453 1,,0,,,,
9453 2,,緑豊小学校入口,,32.8584746,131.6740603,9453 2,,0,,,,
9454 1,,緑豊中学校前,,32.8591828,131.6704896,9454 1,,0,,,,
9454 2,,緑豊中学校前,,32.8591164,131.6703432,9454 2,,0,,,,
9455 9,,地蔵前,,32.8595705,131.6654599,9455 9,,0,,,,
9456 9,,宇目振興局前,,32.85857047,131.657194,9456 9,,0,,,,
9457 9,,家畜市場,,32.8587545,131.6472862,9457 9,,0,,,,
9458 9,,くわ津留,,32.8574185,131.6400949,9458 9,,0,,,,
9459 9,,井手野津留,,32.8556546,131.6363452,9459 9,,0,,,,
9460 9,,小野市,,32.85610364,131.6322795,9460 9,,0,,,,
9461 9,,新徳寺,,32.8571444,131.6313454,9461 9,,0,,,,
9462 9,,うめタウン３２６,,32.8584548,131.629414,9462 9,,0,,,,
9464 9,,小野市保育所前,,32.85518704,131.630763,9464 9,,0,,,,
9465 9,,楢の木,,32.8540609,131.629662,9465 9,,0,,,,
9466 9,,中津留入口,,32.8531459,131.6286491,9466 9,,0,,,,
9467 9,,ふれあいセンター宇目,,32.852404,131.6288466,9467 9,,0,,,,
9931 1,,保健所前,,32.9577474,131.8982528,9931 1,,0,,,,
9931 2,,保健所前,,32.9577443,131.8983846,9931 2,,0,,,,
9932 1,,塩屋橋,,32.9556477,131.8994694,9932 1,,0,,,,
9932 2,,塩屋橋,,32.9556477,131.8997361,9932 2,,0,,,,
9933 1,,中の島東町,,32.9538122,131.9030256,9933 1,,0,,,,
9933 2,,中の島東町,,32.9538933,131.9030671,9933 2,,0,,,,
9934 1,,女島橋,,32.9517863,131.9056675,9934 1,,0,,,,
9934 2,,女島橋,,32.9516624,131.9057229,9934 2,,0,,,,
