stop_id,stop_code,stop_name,stop_desc,stop_lat,stop_lon,zone_id,stop_url,location_type,parent_station,stop_timezone,wheelchair_boarding,platform_code
1095 1,,八重垣,,33.3079152,131.1614722,1095 1,,0,,,,
1096 1,,童話碑入口,,33.3031603,131.1606128,1096 1,,0,,,,
1097 1,,森横町,,33.300592,131.1606663,1097 1,,0,,,,
1098 1,,二葉町,,33.2987192,131.1587529,1098 1,,0,,,,
1099 1,,森御幸町,,33.296961,131.158554,1099 1,,0,,,,
1100 1,,森中央小学校前,,33.2950046,131.1582937,1100 1,,0,,,,
1100 2,,森中央小学校前,,33.2949976,131.1583919,1100 2,,0,,,,
1101 1,,栄町,,33.2925537,131.1564018,1101 1,,0,,,,
1101 2,,栄町,,33.2925186,131.1564739,1101 2,,0,,,,
1102 1,,森中学校前,,33.2916556,131.1556963,1102 1,,0,,,,
1103 1,,玖珠自衛隊入口,,33.2899521,131.1545571,1103 1,,0,,,,
1104 1,,上の市,,33.2883838,131.1539419,1104 1,,0,,,,
1105 0,,十文字,,33.2836814,131.153682,1105 0,,0,,,,
1105 1,,十文字,,33.2836893,131.1536652,1105 1,,0,,,,
1105 2,,十文字,,33.2836147,131.1536572,1105 2,,0,,,,
1106 0,,豊後森,,33.2830989,131.154971,1106 0,,0,,,,
1106 1,,豊後森,,33.2830793,131.1549777,1106 1,,0,,,,
1231 0,,耶馬渓支所前,,33.4536189,131.1141458,1231 0,,0,,,,
1231 1,,耶馬渓支所前,,33.4537509,131.1142008,1231 1,,0,,,,
1232 0,,柿坂,,33.4519082,131.1150131,1232 0,,0,,,,
1232 1,,柿坂,,33.4519507,131.1151123,1232 1,,0,,,,
1233 3,,耶馬渓中学校前,,33.4472609,131.1180183,1233 3,,0,,,,
1249 1,,三郷保育園前,,33.4028495,131.0579829,1249 1,,0,,,,
1249 2,,三郷保育園前,,33.4029133,131.0578904,1249 2,,0,,,,
1250 1,,宇曽,,33.4022958,131.0546439,1250 1,,0,,,,
1250 2,,宇曽,,33.4024122,131.0546305,1250 2,,0,,,,
1251 1,,上村,,33.4017277,131.0501562,1251 1,,0,,,,
1251 2,,上村,,33.4018486,131.0501321,1251 2,,0,,,,
1252 1,,朝陽橋,,33.4030722,131.0441861,1252 1,,0,,,,
1252 2,,朝陽橋,,33.4031147,131.044292,1252 2,,0,,,,
1253 1,,山国役場前,,33.403509,131.0420959,1253 1,,0,,,,
1254 0,,守実温泉,,33.4036956,131.0403351,1254 0,,0,,,,
1254 1,,守実温泉,,33.4036956,131.0403351,1254 1,,0,,,,
1258 1,,物部,,33.4444098,131.1319962,1258 1,,0,,,,
1259 1,,柿瀬,,33.4396255,131.139349,1259 1,,0,,,,
1260 1,,百田,,33.4332676,131.1445412,1260 1,,0,,,,
1261 1,,竹の弦,,33.4262388,131.1464594,1261 1,,0,,,,
1262 1,,原井団地,,33.4208533,131.1540947,1262 1,,0,,,,
1263 1,,原井,,33.4181542,131.1558923,1263 1,,0,,,,
1264 1,,山移,,33.412527,131.1577465,1264 1,,0,,,,
1264 2,,山移,,33.4125516,131.1578457,1264 2,,0,,,,
1265 0,,持田,,33.4078301,131.1577084,1265 0,,0,,,,
1265 1,,持田,,33.4078432,131.1576041,1265 1,,0,,,,
1265 2,,持田,,33.4078298,131.1577017,1265 2,,0,,,,
1266 1,,八木蒔,,33.3996015,131.1565059,1266 1,,0,,,,
1267 1,,耶馬渓平原,,33.3908389,131.1641911,1267 1,,0,,,,
1268 1,,鴫良温泉前,,33.3847306,131.1658116,1268 1,,0,,,,
1269 1,,上鴫良,,33.3811983,131.1652343,1269 1,,0,,,,
1270 1,,深耶馬渓駐車場前,,33.376979,131.1663842,1270 1,,0,,,,
1271 1,,耶馬渓温泉センター,,33.3738701,131.1664936,1271 1,,0,,,,
1272 1,,深耶馬溪温泉,,33.3720984,131.1655021,1272 1,,0,,,,
1273 1,,一つ家,,33.3704153,131.1683884,1273 1,,0,,,,
1274 1,,軍艦岩,,33.3633881,131.1747619,1274 1,,0,,,,
1275 1,,錦雲峡入口,,33.3534034,131.1802669,1275 1,,0,,,,
1276 0,,鹿倉,,33.3356401,131.1711593,1276 0,,0,,,,
1276 1,,鹿倉,,33.3356401,131.1711593,1276 1,,0,,,,
1277 1,,園部,,33.3328368,131.1687527,1277 1,,0,,,,
1278 1,,須山,,33.3294048,131.1646706,1278 1,,0,,,,
1279 1,,内山,,33.3267182,131.1601667,1279 1,,0,,,,
1280 1,,弁天橋,,33.3235451,131.1571783,1280 1,,0,,,,
1281 1,,大九郎,,33.3185803,131.1567209,1281 1,,0,,,,
1573 1,,森町,,33.3021107,131.1581616,1573 1,,0,,,,
1574 1,,森本町,,33.3002446,131.158465,1574 1,,0,,,,
1576 0,,山下,,33.3198142,131.1160689,1576 0,,0,,,,
1576 1,,山下,,33.3198814,131.116034,1576 1,,0,,,,
1577 1,,田能原,,33.3213033,131.1216588,1577 1,,0,,,,
1578 1,,小原,,33.3214485,131.1247073,1578 1,,0,,,,
1579 1,,中原,,33.3210929,131.1284008,1579 1,,0,,,,
1580 1,,中原入口,,33.3207681,131.1303515,1580 1,,0,,,,
1581 1,,長小野入口,,33.3187068,131.1329435,1581 1,,0,,,,
1582 1,,太田,,33.3168491,131.1380873,1582 1,,0,,,,
1583 1,,平井入口,,33.3143244,131.1391133,1583 1,,0,,,,
1584 1,,八幡小学校前,,33.312825,131.1394059,1584 1,,0,,,,
1585 1,,サンホール前,,33.3109086,131.1396669,1585 1,,0,,,,
1586 1,,本村,,33.3079982,131.1399082,1586 1,,0,,,,
1587 1,,元畑入口,,33.3050022,131.1402036,1587 1,,0,,,,
1588 1,,綾垣,,33.3008384,131.1387502,1588 1,,0,,,,
1589 1,,綾垣丸塚,,33.2972949,131.1376596,1589 1,,0,,,,
1590 1,,下綾垣,,33.294605,131.137268,1590 1,,0,,,,
1591 1,,池の原,,33.2903757,131.137253,1591 1,,0,,,,
1592 1,,井尻町営住宅前,,33.288064,131.1399579,1592 1,,0,,,,
1593 1,,十の釣,,33.2853467,131.1448564,1593 1,,0,,,,
1594 1,,鷹巣,,33.2851702,131.1498227,1594 1,,0,,,,
1596 1,,中摩,,33.4062089,131.0635565,1596 1,,0,,,,
1597 1,,肥前屋,,33.4069602,131.0662452,1597 1,,0,,,,
1598 1,,白地,,33.4059333,131.0660322,1598 1,,0,,,,
1599 1,,笹掛地蔵尊前,,33.4003165,131.0656262,1599 1,,0,,,,
1600 1,,掛地,,33.3940488,131.0659792,1600 1,,0,,,,
1601 1,,寺川,,33.3908764,131.064611,1601 1,,0,,,,
1602 1,,篠矢,,33.3892982,131.0624774,1602 1,,0,,,,
1603 1,,田平,,33.3856093,131.0620384,1603 1,,0,,,,
1604 1,,東入口,,33.3841503,131.0632411,1604 1,,0,,,,
1605 1,,朝小野,,33.382721,131.0633676,1605 1,,0,,,,
1606 0,,梶原,,33.3782541,131.0705185,1606 0,,0,,,,
1606 1,,梶原,,33.3783627,131.0705386,1606 1,,0,,,,
1607 1,,専道,,33.376914,131.0724889,1607 1,,0,,,,
1608 1,,原,,33.3749334,131.0738577,1608 1,,0,,,,
1609 1,,杉山,,33.3722034,131.0791351,1609 1,,0,,,,
1610 1,,神原,,33.3757299,131.0898765,1610 1,,0,,,,
1611 1,,道迫,,33.3741784,131.0916321,1611 1,,0,,,,
1612 1,,古後保育園前,,33.3699627,131.0932377,1612 1,,0,,,,
1613 1,,中野,,33.3688466,131.093533,1613 1,,0,,,,
1614 1,,上中野,,33.3672678,131.0941479,1614 1,,0,,,,
1615 1,,古後中学校前,,33.3658103,131.09446,1615 1,,0,,,,
1616 1,,長田,,33.3645718,131.0950479,1616 1,,0,,,,
1617 1,,灰原,,33.358219,131.098114,1617 1,,0,,,,
1618 1,,平原,,33.3561884,131.0986992,1618 1,,0,,,,
1619 1,,平原入口,,33.3568509,131.1057518,1619 1,,0,,,,
1620 1,,柚の木,,33.3522117,131.1082414,1620 1,,0,,,,
1621 1,,立羽田,,33.3417624,131.1131291,1621 1,,0,,,,
1622 1,,池の尾,,33.343943,131.1250864,1622 1,,0,,,,
1623 1,,鶴ケ原,,33.3425736,131.1295279,1623 1,,0,,,,
1624 1,,坂の上,,33.3392743,131.1295392,1624 1,,0,,,,
1625 1,,小橋,,33.33297,131.1345483,1625 1,,0,,,,
1626 1,,八幡川底,,33.3323365,131.1381908,1626 1,,0,,,,
1627 1,,馬勢入口,,33.329168,131.1391777,1627 1,,0,,,,
1628 1,,松信,,33.3242257,131.1378469,1628 1,,0,,,,
1629 1,,平松,,33.3074967,131.1449401,1629 1,,0,,,,
1630 1,,上伏原,,33.3038254,131.1540749,1630 1,,0,,,,
1631 1,,伏原,,33.3024594,131.1555913,1631 1,,0,,,,
1632 1,,春日町,,33.282224,131.1527109,1632 1,,0,,,,
1632 2,,春日町,,33.2822352,131.152613,1632 2,,0,,,,
1633 1,,塚脇,,33.2769954,131.1508532,1633 1,,0,,,,
1633 2,,塚脇,,33.2770716,131.1507191,1633 2,,0,,,,
1634 1,,寺山,,33.2757242,131.1530032,1634 1,,0,,,,
1634 2,,寺山,,33.2756132,131.1529442,1634 2,,0,,,,
1635 1,,玖珠警察署前,,33.2748389,131.1551314,1635 1,,0,,,,
1635 2,,玖珠警察署前,,33.2747223,131.1550348,1635 2,,0,,,,
1636 0,,下長野,,33.2732998,131.1582827,1636 0,,0,,,,
1636 1,,下長野,,33.2733143,131.1582603,1636 1,,0,,,,
1636 2,,下長野,,33.2732324,131.1581577,1636 2,,0,,,,
1637 1,,長野,,33.2720156,131.1600663,1637 1,,0,,,,
1637 2,,長野,,33.2719438,131.1600019,1637 2,,0,,,,
1638 1,,上長野,,33.2706016,131.1620627,1638 1,,0,,,,
1638 2,,上長野,,33.2705539,131.1619749,1638 2,,0,,,,
1639 1,,北大隈,,33.2676375,131.1656059,1639 1,,0,,,,
1639 2,,北大隈,,33.2676263,131.1654812,1639 2,,0,,,,
1640 1,,大隈,,33.2625644,131.1667911,1640 1,,0,,,,
1640 2,,大隈,,33.2625666,131.1666771,1640 2,,0,,,,
1641 1,,粟野,,33.2539832,131.1664999,1641 1,,0,,,,
1641 2,,粟野,,33.2540045,131.1663846,1641 2,,0,,,,
1642 1,,西入口,,33.2512644,131.1666433,1642 1,,0,,,,
1642 2,,西入口,,33.2512622,131.1665253,1642 2,,0,,,,
1643 1,,牧口,,33.2454405,131.1688978,1643 1,,0,,,,
1643 2,,牧口,,33.2454147,131.1688026,1643 2,,0,,,,
1644 1,,井手,,33.2397411,131.1711693,1644 1,,0,,,,
1645 1,,川道団地前,,33.2376796,131.1732438,1645 1,,0,,,,
1646 1,,富迫,,33.2336581,131.1760274,1646 1,,0,,,,
1646 2,,富迫,,33.2336581,131.1760274,1646 2,,0,,,,
1647 1,,富迫トンネル口,,33.2309495,131.1765536,1647 1,,0,,,,
1648 0,,引治,,33.2280336,131.1779576,1648 0,,0,,,,
1648 1,,引治,,33.2280336,131.1779576,1648 1,,0,,,,
1648 2,,引治,,33.2280673,131.1778852,1648 2,,0,,,,
1649 1,,万年山登山口,,33.2251819,131.1768172,1649 1,,0,,,,
1650 1,,南山田小学校前,,33.2198582,131.1737169,1650 1,,0,,,,
1650 2,,南山田小学校前,,33.2198627,131.1736203,1650 2,,0,,,,
1651 1,,町田,,33.2158703,131.1733237,1651 1,,0,,,,
1651 2,,町田,,33.2158669,131.1732406,1651 2,,0,,,,
1652 1,,柚の木,,33.2129335,131.1718173,1652 1,,0,,,,
1653 1,,潜石,,33.2088428,131.1727087,1653 1,,0,,,,
1654 1,,壁湯,,33.20507,131.16893,1654 1,,0,,,,
1655 1,,生竜,,33.2017822,131.1678002,1655 1,,0,,,,
1656 1,,宝泉寺温泉入口,,33.197465,131.1653417,1656 1,,0,,,,
1656 2,,宝泉寺温泉入口,,33.1975065,131.1652364,1656 2,,0,,,,
1657 1,,宝泉寺,,33.1950028,131.1627254,1657 1,,0,,,,
1658 0,,二瀬,,33.194592,131.1597003,1658 0,,0,,,,
1658 1,,二瀬,,33.194592,131.1597003,1658 1,,0,,,,
1658 2,,二瀬,,33.1947132,131.1596534,1658 2,,0,,,,
1659 1,,下桐木,,33.1931551,131.1556306,1659 1,,0,,,,
1660 1,,上桐木,,33.1915301,131.1510672,1660 1,,0,,,,
1661 1,,川底温泉,,33.1879463,131.147427,1661 1,,0,,,,
1662 0,,下津留,,33.1813595,131.1440363,1662 0,,0,,,,
1662 1,,下津留,,33.1813561,131.1440437,1662 1,,0,,,,
1663 0,,麻生釣,,33.181553,131.1214779,1663 0,,0,,,,
1663 1,,麻生釣,,33.1815518,131.121506,1663 1,,0,,,,
1684 0,,仮家,,33.1784861,131.1477144,1684 0,,0,,,,
1684 1,,仮家,,33.1784869,131.1477161,1684 1,,0,,,,
1685 0,,菅原,,33.1746425,131.148001,1685 0,,0,,,,
1685 1,,菅原,,33.1746616,131.1478897,1685 1,,0,,,,
1688 0,,串野下,,33.1904517,131.1599032,1688 0,,0,,,,
1688 1,,串野下,,33.1904865,131.1599984,1688 1,,0,,,,
1689 0,,串野,,33.1865891,131.1635104,1689 0,,0,,,,
1689 1,,串野,,33.1866183,131.1636257,1689 1,,0,,,,
1690 0,,串野温泉前,,33.1842181,131.1630998,1690 0,,0,,,,
1690 1,,串野温泉前,,33.1842203,131.1630998,1690 1,,0,,,,
1872 1,,尾ヶ篠,,33.4467845,131.1273097,1872 1,,0,,,,
1880 1,,秋満前,,33.4488064,131.1200442,1880 1,,0,,,,
1883 1,,台金入口,,33.450944,131.1232289,1883 1,,0,,,,
1958 0,,引治駅前,,33.2288922,131.1835157,1958 0,,0,,,,
1958 1,,引治駅前,,33.2288978,131.1835103,1958 1,,0,,,,
1959 1,,九重町役場前,,33.2285717,131.1900991,1959 1,,0,,,,
2054 0,,熊谷医院前,,33.4044628,131.0368411,2054 0,,0,,,,
2054 1,,熊谷医院前,,33.4044796,131.0367271,2054 1,,0,,,,
2127 1,,塚脇本町,,33.2790045,131.1520978,2127 1,,0,,,,
2127 2,,塚脇本町,,33.2790404,131.1520092,2127 2,,0,,,,
2128 1,,南山田交流センター,,33.217574,131.1731573,2128 1,,0,,,,
